rental_id,duration,start_date,start_station_name,end_station_name,starting_latitude,starting_longitude,docks_count,ending_latitude,ending_longitude
127942860,1458,2023-01-15 23:59:00.000000 UTC,"Ontario Street, Elephant & Castle","Philpot Street, Whitechapel",51.49652013,-0.101384068,15,51.515256,-0.058641
127942861,1219,2023-01-15 23:59:00.000000 UTC,"Marylebone Lane, Marylebone","Woodstock Grove, Shepherd's Bush",51.51475963,-0.148105415,24,51.50403821,-0.217400093
127942862,2109,2023-01-15 23:59:00.000000 UTC,"High Holborn , Covent Garden","Drury Lane, Covent Garden",51.516226,-0.124826,20,51.51477076,-0.12221963
127942863,2346,2023-01-15 23:59:00.000000 UTC,"Walmer Road, Avondale","Sirdar Road, Avondale",51.510101,-0.211358,24,51.51092871,-0.214594781
127942858,325,2023-01-15 23:58:00.000000 UTC,"Barons Court Station, West Kensington","Humbolt Road, Fulham",51.49021762,-0.215087092,32,51.48321729,-0.211860644
127942859,2109,2023-01-15 23:58:00.000000 UTC,"High Holborn , Covent Garden","Drury Lane, Covent Garden",51.516226,-0.124826,20,51.51477076,-0.12221963
127942851,1137,2023-01-15 23:57:00.000000 UTC,"Upper Bank Street, Canary Wharf","Jubilee Crescent, Cubitt Town",51.503083,-0.017676,36,51.493381,-0.007542
127942855,758,2023-01-15 23:57:00.000000 UTC,"Kingsway Southbound, Strand","Allington Street, Victoria",51.513875,-0.117774,33,51.496863,-0.1429434
127942856,161,2023-01-15 23:57:00.000000 UTC,"Gloucester Road (Central), South Kensington","Lexham Gardens, Kensington",51.49646288,-0.183289032,19,51.49586666,-0.191933711
127942852,1061,2023-01-15 23:57:00.000000 UTC,"Little Argyll Street, West End","Drayton Gardens, West Chelsea",51.51449962,-0.141423695,21,51.487196,-0.179369
127942847,134,2023-01-15 23:57:00.000000 UTC,"Old Street Station, St. Luke's","Finsbury Leisure Centre, St. Luke's",51.52548,-0.089659871,29,51.52600832,-0.096317627
127942853,851,2023-01-15 23:57:00.000000 UTC,"Snowsfields, London Bridge","Kennington Road Post Office, Oval",51.50215353,-0.083632928,31,51.48478899,-0.110683213
127942848,1179,2023-01-15 23:57:00.000000 UTC,"Upper Bank Street, Canary Wharf","Jubilee Crescent, Cubitt Town",51.503083,-0.017676,36,51.493381,-0.007542
127942849,123507,2023-01-15 23:57:00.000000 UTC,"Upper Bank Street, Canary Wharf","Jubilee Crescent, Cubitt Town",51.503083,-0.017676,36,51.493381,-0.007542
127942854,382,2023-01-15 23:57:00.000000 UTC,"Bethnal Green Garden, Bethnal Green","London Fields, Hackney Central",51.52568,-0.055312,24,51.54119,-0.058826101
127942857,227,2023-01-15 23:57:00.000000 UTC,"Coram Street, Bloomsbury","Hampstead Road, Euston",51.524,-0.12640984,29,51.52554222,-0.138231303
127942850,1900,2023-01-15 23:57:00.000000 UTC,"Gloucester Road Station, South Kensington","Phillimore Gardens, Kensington",51.49418566,-0.18267094,15,51.49960695,-0.197574246
127942846,118571,2023-01-15 23:56:00.000000 UTC,"Westferry DLR, Limehouse","Aston Street, Stepney",51.509303,-0.025996,41,51.516,-0.038775
127942845,435,2023-01-15 23:56:00.000000 UTC,"Kennington Station, Kennington","Swan Street, The Borough",51.488852,-0.105593,23,51.50029631,-0.092762704
127942844,1228,2023-01-15 23:56:00.000000 UTC,"Green Park Station, Mayfair","Barons Court Station, West Kensington",51.506613,-0.142844,28,51.49021762,-0.215087092
127942843,580,2023-01-15 23:55:00.000000 UTC,"Waterloo Station 1, Waterloo","Tyers Gate, Bermondsey",51.50402794,-0.11386436,36,51.50088934,-0.083159352
127942842,978,2023-01-15 23:54:00.000000 UTC,"Baldwin Street, St. Luke's","Cephas Street, Bethnal Green",51.52702563,-0.088542771,21,51.522561,-0.054883
127942839,1918,2023-01-15 23:54:00.000000 UTC,"Great Tower Street, Monument","Earnshaw Street , Covent Garden",51.51048489,-0.082989638,24,51.51611887,-0.128585022
127942841,1058,2023-01-15 23:54:00.000000 UTC,"Little Argyll Street, West End","Old Street Station, St. Luke's",51.51449962,-0.141423695,21,51.52548,-0.089659871
127942840,425,2023-01-15 23:54:00.000000 UTC,"Moor Street, Soho","Harrington Square 1, Camden Town",51.51352755,-0.130110822,16,51.53301907,-0.139174593
127942838,1964,2023-01-15 23:53:00.000000 UTC,"Great Tower Street, Monument","Earnshaw Street , Covent Garden",51.51048489,-0.082989638,24,51.51611887,-0.128585022
127942837,860,2023-01-15 23:53:00.000000 UTC,"Harriet Street, Knightsbridge","Hatton Wall, Holborn",51.50024195,-0.15934065,25,51.5216612,-0.109006325
127942834,133,2023-01-15 23:52:00.000000 UTC,"Gloucester Road (North), Kensington","Gloucester Road Station, South Kensington",51.49792478,-0.183834706,18,51.49418566,-0.18267094
127942836,878,2023-01-15 23:52:00.000000 UTC,"Prince Consort Road, Knightsbridge","Southwick Street, Paddington",51.49980661,-0.176415994,18,51.51595344,-0.169249375
127942831,351,2023-01-15 23:51:00.000000 UTC,"Tower Gardens , Tower","Shadwell Station, Shadwell",51.50950627,-0.075459482,24,51.511088,-0.057159
127942833,1002,2023-01-15 23:51:00.000000 UTC,"Farm Street, Mayfair","Chesilton Road, Fulham",51.50935171,-0.14744969,15,51.47569809,-0.20587627
127942830,739,2023-01-15 23:50:00.000000 UTC,"Wellington Street , Strand","Black Prince Road, Vauxhall",51.51175646,-0.119643424,24,51.4908679,-0.116911864
127942829,1031,2023-01-15 23:50:00.000000 UTC,"Rochester Row, Westminster","Monument Street, Monument",51.49582705,-0.13547809,13,51.50964,-0.08497
127942827,171,2023-01-15 23:49:00.000000 UTC,"Maplin Street, Mile End","Mile End Park Leisure Centre, Mile End",51.525501,-0.032267204,39,51.52059714,-0.032566533
127942826,311,2023-01-15 23:49:00.000000 UTC,"Pitfield Street Central, Hoxton","Shoreditch Park, Hoxton",51.53213,-0.08299,30,51.53404294,-0.086379717
127942825,1510,2023-01-15 23:49:00.000000 UTC,"Wormwood Street, Liverpool Street","Eastbourne Mews, Paddington",51.51615461,-0.082422399,16,51.51641749,-0.179135079
127942828,628,2023-01-15 23:49:00.000000 UTC,"Commercial Street, Shoreditch","Aylward Street, Stepney",51.52127071,-0.0755789,16,51.51563007,-0.049067243
127942822,1050,2023-01-15 23:48:00.000000 UTC,"Royal London Hospital, Whitechapel","Harris Academy, Bermondsey",51.518675,-0.06111,42,51.492668,-0.072350665
127942818,867,2023-01-15 23:47:00.000000 UTC,"Clapham Common Station, Clapham Common","Gauden Road, Clapham",51.461388,-0.13922146,21,51.464995,-0.13090885
127942819,307,2023-01-15 23:47:00.000000 UTC,"Duke Street Hill, London Bridge","Great Dover Street, The Borough",51.50630441,-0.087262995,21,51.49738251,-0.089446947
127942820,400,2023-01-15 23:47:00.000000 UTC,"Malet Street, Bloomsbury","Birkenhead Street, King's Cross",51.52168078,-0.130431727,49,51.5301998755,-0.122299440803
127942821,1701,2023-01-15 23:47:00.000000 UTC,"Concert Hall Approach 2, South Bank","Phene Street, Chelsea",51.504942,-0.115533,18,51.48498496,-0.167919869
127942816,548,2023-01-15 23:46:00.000000 UTC,"Stratford Station, Stratford","Monier Road, Hackney Wick",51.541793,-0.00481,28,51.5403115,-0.021630359
127942817,1111,2023-01-15 23:46:00.000000 UTC,"Cadogan Gardens, Chelsea","Strata, Elephant & Castle",51.492462,-0.159919,15,51.493146,-0.099828
127942815,1342,2023-01-15 23:46:00.000000 UTC,"Curlew Street, Shad Thames","Salmon Lane, Limehouse",51.50227992,-0.074189225,21,51.514115,-0.033828
127942811,1343,2023-01-15 23:45:00.000000 UTC,"Woodstock Grove, Shepherd's Bush","Sandilands Road, Walham Green",51.50403821,-0.217400093,24,51.473611,-0.191803
127942814,240,2023-01-15 23:45:00.000000 UTC,"Curlew Street, Shad Thames","Bricklayers Arms, Borough",51.50227992,-0.074189225,21,51.49506109,-0.085814489
127942812,568,2023-01-15 23:45:00.000000 UTC,"Finsbury Square , Moorgate","Dock Street, Wapping",51.52096262,-0.085634242,33,51.5097860151,-0.0681619805156
127942813,1040,2023-01-15 23:45:00.000000 UTC,"Stratford Station, Stratford","Pritchard's Road, Bethnal Green",51.541793,-0.00481,28,51.532091,-0.06142
127942808,2809,2023-01-15 23:44:00.000000 UTC,"Curlew Street, Shad Thames","Teviot Street, Poplar",51.50227992,-0.074189225,21,51.518811,-0.011662
127942809,2791,2023-01-15 23:44:00.000000 UTC,"Curlew Street, Shad Thames","Teviot Street, Poplar",51.50227992,-0.074189225,21,51.518811,-0.011662
127942810,526,2023-01-15 23:44:00.000000 UTC,"Red Lion Street, Holborn","Hoxton Street, Hoxton",51.51824,-0.11655,36,51.52959,-0.0801
127942807,429,2023-01-15 23:43:00.000000 UTC,"Good's Way, King's Cross","Doric Way , Somers Town",51.5346677396,-0.125078652873,27,51.5288338,-0.132250369
127942806,951,2023-01-15 23:42:00.000000 UTC,"Tavistock Street, Covent Garden","Southampton Street, Strand",51.51196803,-0.120718759,33,51.51070161,-0.121723604
127942805,638,2023-01-15 23:42:00.000000 UTC,"Duke Street Hill, London Bridge","Leman Street, Aldgate",51.50630441,-0.087262995,21,51.51236389,-0.06954201
127942804,324,2023-01-15 23:42:00.000000 UTC,"Central House, Aldgate","Jubilee Street, Stepney",51.515231,-0.07015,18,51.515975,-0.053177
127942801,411,2023-01-15 23:40:00.000000 UTC,"Bankside Mix, Bankside","Tooley Street, Bermondsey",51.50581776,-0.100186337,60,51.5034938,-0.07962099
127942799,2067,2023-01-15 23:40:00.000000 UTC,"Burgess Park Albany Road, Walworth","Queensbridge Road, Haggerston",51.48224,-0.0942844,30,51.53385,-0.06992
127942800,1502,2023-01-15 23:40:00.000000 UTC,"Broadwick Street, Soho","Long Lane , Bermondsey",51.5136846,-0.135580879,18,51.49907558,-0.085666316
127942797,425,2023-01-15 23:39:00.000000 UTC,"Westminster University, Marylebone","Sackville Street, Mayfair",51.52248185,-0.154907218,16,51.51004801,-0.138846453
127942798,641,2023-01-15 23:39:00.000000 UTC,"Argyll Road, Kensington","Gloucester Road (North), Kensington",51.50040123,-0.195455928,19,51.49792478,-0.183834706
127942793,376,2023-01-15 23:37:00.000000 UTC,"Baylis Road, Waterloo","Kennington Cross, Kennington",51.50144456,-0.110699309,22,51.48894022,-0.111435796
127942790,264,2023-01-15 23:36:00.000000 UTC,"St. Luke's Church, Chelsea","Danvers Street, West Chelsea",51.48971651,-0.170194408,20,51.48256792,-0.172078187
127942791,1101,2023-01-15 23:36:00.000000 UTC,"St. George Street, Mayfair","Rodney Road , Walworth",51.51196,-0.142783033,18,51.49148474,-0.090220911
127942789,390,2023-01-15 23:36:00.000000 UTC,"De Vere Gardens, Kensington","Queensway, Kensington Gardens",51.50173726,-0.184980612,28,51.51031,-0.18740235
127942792,1282,2023-01-15 23:36:00.000000 UTC,"Stratford Station, Stratford","Flamborough Street, Limehouse",51.541793,-0.00481,28,51.5128711,-0.0389866
127942788,1122,2023-01-15 23:35:00.000000 UTC,"Berry Street, Clerkenwell","Cotton Garden Estate, Kennington",51.52285301,-0.099994052,41,51.4907579,-0.106323685
127942785,110,2023-01-15 23:35:00.000000 UTC,"Warren Street Station, Euston","Euston Road, Euston",51.52443845,-0.138019439,26,51.5262363,-0.134407652
127942786,2818,2023-01-15 23:35:00.000000 UTC,"Cartwright Gardens , Bloomsbury","Chrisp Street Market, Poplar",51.52635795,-0.125979294,21,51.5112,-0.014438
127942784,662,2023-01-15 23:35:00.000000 UTC,"New Road 1 , Whitechapel","Murray Grove , Hoxton",51.518154,-0.062697,36,51.53089041,-0.089782579
127942787,1048,2023-01-15 23:35:00.000000 UTC,"Cadogan Place, Knightsbridge","Stephendale Road, Sands End",51.49464523,-0.158105512,34,51.46822047,-0.190346493
127942783,581,2023-01-15 23:34:00.000000 UTC,"Central House, Aldgate","Flamborough Street, Limehouse",51.515231,-0.07015,18,51.5128711,-0.0389866
127942778,737,2023-01-15 23:34:00.000000 UTC,"Clapham Common Station, Clapham Common","Albert Bridge Road, Battersea Park",51.461388,-0.13922146,21,51.47439218,-0.163347594
127942781,316,2023-01-15 23:34:00.000000 UTC,"Cleveland Way, Stepney","Clarkson Street, Bethnal Green",51.520893,-0.051394,36,51.528692,-0.059091
127942780,379,2023-01-15 23:34:00.000000 UTC,"Margery Street, Clerkenwell","Finsbury Leisure Centre, St. Luke's",51.52659961,-0.112432615,19,51.52600832,-0.096317627
127942777,744,2023-01-15 23:34:00.000000 UTC,"Clapham Common Station, Clapham Common","Albert Bridge Road, Battersea Park",51.461388,-0.13922146,21,51.47439218,-0.163347594
127942776,1265,2023-01-15 23:33:00.000000 UTC,"Abingdon Villas, Kensington","Ethelburga Estate, Battersea Park",51.4973875,-0.197245586,17,51.47729232,-0.16478637
127942774,353,2023-01-15 23:32:00.000000 UTC,"Bermondsey Station, Bermondsey","The Blue, Bermondsey",51.497995,-0.063471392,30,51.492221,-0.062513099999989663
127942775,341,2023-01-15 23:32:00.000000 UTC,"Bermondsey Station, Bermondsey","The Blue, Bermondsey",51.497995,-0.063471392,30,51.492221,-0.062513099999989663
127942772,624,2023-01-15 23:31:00.000000 UTC,"Park Street, Bankside","Walnut Tree Walk, Vauxhall",51.50597426,-0.092754157,18,51.49368637,-0.111014912
127942770,192,2023-01-15 23:30:00.000000 UTC,"Gloucester Road (North), Kensington","Lexham Gardens, Kensington",51.49792478,-0.183834706,18,51.49586666,-0.191933711
127942771,222,2023-01-15 23:30:00.000000 UTC,"Islington Green, Angel","Windsor Terrace, Hoxton",51.53638435,-0.102757578,21,51.52915444,-0.093421615
127942767,136,2023-01-15 23:29:00.000000 UTC,"St John's Crescent, Brixton","Wynne Road, Stockwell",51.466232,-0.11317995,25,51.469217,-0.11268674
127942769,785,2023-01-15 23:29:00.000000 UTC,"Bethnal Green Road, Shoreditch","Concert Hall Approach 1, South Bank",51.52364804,-0.074754872,38,51.505044,-0.115851
127942768,590,2023-01-15 23:29:00.000000 UTC,"Doric Way , Somers Town","Eversholt Street , Camden Town",51.5288338,-0.132250369,50,51.53300545,-0.136792671
127942765,305,2023-01-15 23:28:00.000000 UTC,"Natural History Museum, South Kensington","Harcourt Terrace, West Brompton",51.49559291,-0.179077626,42,51.48795853,-0.187404506
127942761,397,2023-01-15 23:27:00.000000 UTC,"World's End Place, West Chelsea","Trebovir Road, Earl's Court",51.48180515,-0.18027465,22,51.49085368,-0.196170309
127942763,1210,2023-01-15 23:27:00.000000 UTC,"Greenland Road, Camden Town","Bishop's Bridge Road West, Bayswater",51.539099,-0.141728,36,51.51616,-0.18697
127942760,506,2023-01-15 23:27:00.000000 UTC,"Westminster University, Marylebone","Aberdeen Place, St. John's Wood",51.52248185,-0.154907218,16,51.524826,-0.176268
127942762,841,2023-01-15 23:27:00.000000 UTC,"Waterloo Road, South Bank","Hinde Street, Marylebone",51.50486,-0.113001,15,51.51681444,-0.151926305
127942758,360,2023-01-15 23:26:00.000000 UTC,"Lansdowne Road, Ladbroke Grove","Russell Gardens, Olympia",51.50748124,-0.205535908,29,51.500088,-0.211316
127942757,399,2023-01-15 23:26:00.000000 UTC,"Watney Market, Stepney","Fournier Street, Whitechapel",51.5142228,-0.055656,51,51.519362,-0.074431
127942759,871,2023-01-15 23:26:00.000000 UTC,"Golden Lane, Barbican","Leman Street, Aldgate",51.52174785,-0.094475072,27,51.51236389,-0.06954201
127942756,401,2023-01-15 23:26:00.000000 UTC,"City Road, Angel","St. Chad's Street, King's Cross",51.530344,-0.100168,47,51.53005939,-0.120973687
127942754,186,2023-01-15 23:25:00.000000 UTC,"Leman Street, Aldgate","Nesham Street, Wapping",51.51236389,-0.06954201,37,51.507131,-0.06691
127942755,611,2023-01-15 23:25:00.000000 UTC,"Waterloo Station 2, Waterloo","Tanner Street, Bermondsey",51.50391973,-0.11342629,55,51.50064702,-0.078600401
127942751,1535,2023-01-15 23:24:00.000000 UTC,"St. John's Wood Road, St. John's Wood","BBC White City, White City",51.5272947,-0.174653609,35,51.514767,-0.225787
127942753,326,2023-01-15 23:24:00.000000 UTC,"Tower Wharf, Bermondsey","Wapping High Street, Wapping",51.500845,-0.074704305,20,51.504904,-0.06797
127942752,675,2023-01-15 23:24:00.000000 UTC,"Bell Lane, Liverpool Street","Rodney Road , Walworth",51.517475,-0.075855,23,51.49148474,-0.090220911
127942750,926,2023-01-15 23:24:00.000000 UTC,"Norton Folgate, Liverpool Street","New Kent Road, The Borough",51.52111369,-0.078869751,23,51.49443626,-0.092921165
127942748,944,2023-01-15 23:23:00.000000 UTC,"Westfield Southern Terrace ,Shepherd's Bush","Westbridge Road, Battersea",51.506256,-0.218337,29,51.47768469,-0.170329317
127942749,319,2023-01-15 23:23:00.000000 UTC,"Fanshaw Street, Hoxton","Bethnal Green Road, Shoreditch",51.52953709,-0.083353323,36,51.52364804,-0.074754872
127942744,285,2023-01-15 23:22:00.000000 UTC,"Watney Market, Stepney","Selby Street, Whitechapel",51.5142228,-0.055656,51,51.521905,-0.063386
127942746,667,2023-01-15 23:22:00.000000 UTC,"Stepney Green Station, Stepney","Bow Road Station, Bow",51.521889,-0.04667,21,51.527058,-0.025296
127942747,1048,2023-01-15 23:22:00.000000 UTC,"Islington Green, Angel","Victoria Park Road, Hackney Central",51.53638435,-0.102757578,21,51.53642464,-0.054162264
127942742,154,2023-01-15 23:22:00.000000 UTC,"Walworth Square, Walworth","New Kent Road, The Borough",51.491327,-0.096518684,24,51.49443626,-0.092921165
127942745,1067,2023-01-15 23:22:00.000000 UTC,"Brandon Street, Walworth","Watney Street, Shadwell",51.489102,-0.0915489,22,51.511542,-0.056667
127942743,494,2023-01-15 23:22:00.000000 UTC,"Walworth Square, Walworth","Tanner Street, Bermondsey",51.491327,-0.096518684,24,51.50064702,-0.078600401
127942741,338,2023-01-15 23:21:00.000000 UTC,"Tanner Street, Bermondsey","Lavington Street, Bankside",51.50064702,-0.078600401,41,51.5052241745,-0.0980318118664
127942738,388,2023-01-15 23:21:00.000000 UTC,"Bridge Avenue, Hammersmith","Brook Green South, Brook Green",51.49208492,-0.229116862,18,51.49434708,-0.215804559
127942740,1169,2023-01-15 23:21:00.000000 UTC,"Dunston Road , Haggerston","Eagle Wharf Road, Hoxton",51.53658514,-0.075885686,43,51.53356,-0.09315
127942739,875,2023-01-15 23:21:00.000000 UTC,"Exhibition Road Museums 2, South Kensington","Alderney Street, Pimlico",51.495947,-0.17368958,14,51.48805753,-0.140741432
127942737,767,2023-01-15 23:21:00.000000 UTC,"Woodstock Street, Mayfair","Hawley Crescent, Camden Town",51.51410514,-0.147301667,21,51.54100708,-0.14326094
127942734,766,2023-01-15 23:20:00.000000 UTC,"Stepney Green Station, Stepney","Bow Road Station, Bow",51.521889,-0.04667,21,51.527058,-0.025296
127942733,738,2023-01-15 23:20:00.000000 UTC,"Ansell House, Stepney","Hewison Street, Old Ford",51.520019,-0.05438,41,51.533283,-0.028155
127942731,793,2023-01-15 23:20:00.000000 UTC,"Royal London Hospital, Whitechapel","Falkirk Street, Hoxton",51.518675,-0.06111,42,51.53095071,-0.078505384
127942735,336,2023-01-15 23:20:00.000000 UTC,"Vicarage Gate, Kensington","Hereford Road, Bayswater",51.50472376,-0.192538767,18,51.513735,-0.193487
127942730,233,2023-01-15 23:19:00.000000 UTC,"Notting Hill Gate Station, Notting Hill","Westbourne Park Road, Portobello",51.50935342,-0.196422,30,51.51787005,-0.201005397
127942728,491,2023-01-15 23:18:00.000000 UTC,"Clinton Road, Mile End","Gascoyne Road, Victoria Park",51.525941,-0.036017,36,51.541515,-0.038557746
127942727,812,2023-01-15 23:17:00.000000 UTC,"Pall Mall East, West End","Black Prince Road, Vauxhall",51.50777049,-0.130699733,22,51.4908679,-0.116911864
127942725,1114,2023-01-15 23:17:00.000000 UTC,"Moor Street, Soho","George Row, Bermondsey",51.51352755,-0.130110822,16,51.498585,-0.068981764
127942726,383,2023-01-15 23:17:00.000000 UTC,"Brandon Street, Walworth","Harper Road, The Borough",51.489102,-0.0915489,22,51.49859784,-0.096191134
127942723,384,2023-01-15 23:16:00.000000 UTC,"Bethnal Green Road, Shoreditch","New North Road 2, Hoxton",51.52364804,-0.074754872,38,51.53114,-0.086016
127942724,189,2023-01-15 23:16:00.000000 UTC,"Barons Court Station, West Kensington","Greyhound Road, Hammersmith",51.49021762,-0.215087092,32,51.48606206,-0.214428378
127942721,420,2023-01-15 23:16:00.000000 UTC,"Bethnal Green Road, Shoreditch","New North Road 2, Hoxton",51.52364804,-0.074754872,38,51.53114,-0.086016
127942720,1240,2023-01-15 23:16:00.000000 UTC,"Spencer Park, Wandsworth Common","Lambeth Palace Road, Waterloo",51.45787019,-0.174691623,25,51.5000891978,-0.116628700672
127942722,211,2023-01-15 23:16:00.000000 UTC,"Barons Court Station, West Kensington","Greyhound Road, Hammersmith",51.49021762,-0.215087092,32,51.48606206,-0.214428378
127942716,554,2023-01-15 23:15:00.000000 UTC,"Kensington Town Hall, Kensington","Westbourne Park Road, Portobello",51.50194596,-0.194392952,18,51.51787005,-0.201005397
127942717,209,2023-01-15 23:15:00.000000 UTC,"Cleveland Way, Stepney","Stepney Green Station, Stepney",51.520893,-0.051394,36,51.521889,-0.04667
127942719,161,2023-01-15 23:15:00.000000 UTC,"Cleveland Way, Stepney","Stepney Green Station, Stepney",51.520893,-0.051394,36,51.521889,-0.04667
127942715,347,2023-01-15 23:14:00.000000 UTC,"Cranmer Road, Stockwell","Ashmole Estate, Oval",51.479601,-0.11147178,24,51.48267821,-0.117661574
127942714,202,2023-01-15 23:13:00.000000 UTC,"Fulham Broadway, Walham Green","Imperial Road, Sands End",51.47993289,-0.19411695,26,51.47514228,-0.187278987
127942713,648,2023-01-15 23:13:00.000000 UTC,"Central House, Aldgate","Furze Green, Bow",51.515231,-0.07015,18,51.519265,-0.021345
127942712,737,2023-01-15 23:12:00.000000 UTC,"Dock Street, Wapping","Hop Exchange, The Borough",51.5097860151,-0.0681619805156,30,51.50462759,-0.091773776
127942709,1318,2023-01-15 23:12:00.000000 UTC,"Sardinia Street, Holborn","Embankment (Savoy), Strand",51.515208,-0.117863,24,51.50963123,-0.119047563
127942710,319,2023-01-15 23:12:00.000000 UTC,"Royal London Hospital, Whitechapel","Durant Street, Bethnal Green",51.518675,-0.06111,42,51.52868155,-0.065550321
127942708,1974,2023-01-15 23:12:00.000000 UTC,"Arlington Road, Camden Town","Brandon Street, Walworth",51.539957,-0.145246,24,51.489102,-0.0915489
127942711,1019,2023-01-15 23:12:00.000000 UTC,"Bruton Street, Mayfair","Bunhill Row, Moorgate",51.51073687,-0.144165239,21,51.52085887,-0.089887855
127942706,165,2023-01-15 23:11:00.000000 UTC,"Sadlers Sports Centre, Finsbury","Hatton Wall, Holborn",51.52486887,-0.099489485,17,51.5216612,-0.109006325
127942705,1204,2023-01-15 23:11:00.000000 UTC,"Dorset Square, Marylebone","Horseferry Road, Westminster",51.5225965,-0.161113413,16,51.49481649,-0.13045856
127942707,775,2023-01-15 23:11:00.000000 UTC,"Waterloo Station 1, Waterloo","Old Montague Street, Whitechapel",51.50402794,-0.11386436,36,51.51793,-0.067937
127942704,575,2023-01-15 23:10:00.000000 UTC,"Belgrave Square, Belgravia","The Vale, Chelsea",51.49941247,-0.152317537,21,51.48512191,-0.174971902
127942702,1509,2023-01-15 23:10:00.000000 UTC,"Crawford Street, Marylebone","Columbia Road, Shoreditch",51.52026,-0.157183945,18,51.528187,-0.075375
127942703,616,2023-01-15 23:10:00.000000 UTC,"Flamborough Street, Limehouse","Central House, Aldgate",51.5128711,-0.0389866,25,51.515231,-0.07015
127942700,1026,2023-01-15 23:09:00.000000 UTC,"Sackville Street, Mayfair","Eversholt Street , Camden Town",51.51004801,-0.138846453,18,51.53300545,-0.136792671
127942697,331,2023-01-15 23:09:00.000000 UTC,"Hermitage Court, Wapping","Tower Gardens , Tower",51.504719,-0.063531,16,51.50950627,-0.075459482
127942699,38589,2023-01-15 23:09:00.000000 UTC,"London Street, Paddington","Lollard Street, Vauxhall",51.515117,-0.17371276,19,51.49288067,-0.114934001
127942698,462,2023-01-15 23:09:00.000000 UTC,"Borough High Street, The Borough","Sancroft Street, Vauxhall",51.50069491,-0.094524319,21,51.48947903,-0.115156562
127942696,617,2023-01-15 23:08:00.000000 UTC,"Millbank Tower, Pimlico","Ashmole Estate, Oval",51.49188409,-0.125674815,24,51.48267821,-0.117661574
127942695,644,2023-01-15 23:08:00.000000 UTC,"Old Brompton Road, South Kensington","Harrowby Street, Marylebone",51.49094565,-0.181190899,30,51.5173721,-0.1642075
127942693,1039,2023-01-15 23:07:00.000000 UTC,"Shoreditch High Street, Shoreditch","Moor Street, Soho",51.5263778,-0.078130921,41,51.51352755,-0.130110822
127942690,1437,2023-01-15 23:07:00.000000 UTC,"Wells Street, Fitzrovia","Regent's Row , Haggerston",51.51734403,-0.138072691,38,51.535678,-0.062546
127942691,887,2023-01-15 23:07:00.000000 UTC,"Fore Street, Guildhall","Frith Street, Soho",51.518093,-0.0914017,25,51.51310333,-0.13121385
127942694,2310,2023-01-15 23:07:00.000000 UTC,"St. George Street, Mayfair","Clapham Common North Side, Clapham Common",51.51196,-0.142783033,18,51.46134382,-0.159322467
127942685,942,2023-01-15 23:06:00.000000 UTC,"Regent's Row , Haggerston","Stainsby Road , Poplar",51.535678,-0.062546,24,51.51542791,-0.02356501
127942683,852,2023-01-15 23:06:00.000000 UTC,"Langdon Park, Poplar","Mudchute DLR, Cubitt Town",51.51549,-0.013475,24,51.490645,-0.014582
127942684,626,2023-01-15 23:06:00.000000 UTC,"Hollybush Gardens, Bethnal Green","Ackroyd Drive, Bow",51.527607,-0.057133,32,51.520398,-0.026768
127942688,1021,2023-01-15 23:06:00.000000 UTC,"De Vere Gardens, Kensington","Ravenscourt Park Station, Hammersmith",51.50173726,-0.184980612,28,51.49422354,-0.236769936
127942686,629,2023-01-15 23:06:00.000000 UTC,"Sackville Street, Mayfair","St Mary's Hospital, Paddington",51.51004801,-0.138846453,18,51.518268,-0.17110323
127942689,297,2023-01-15 23:06:00.000000 UTC,"St. Katharine's Way, Tower","Wapping Lane, Wapping",51.505697,-0.070542,24,51.504749,-0.057544
127942692,647,2023-01-15 23:06:00.000000 UTC,"Albert Gate, Hyde Park","Tachbrook Street, Victoria",51.50295379,-0.158456089,34,51.49211134,-0.138364847
127942679,318,2023-01-15 23:05:00.000000 UTC,"Cleveland Way, Stepney","Philpot Street, Whitechapel",51.520893,-0.051394,36,51.515256,-0.058641
127942680,568,2023-01-15 23:05:00.000000 UTC,"Flamborough Street, Limehouse","Cantrell Road, Bow",51.5128711,-0.0389866,25,51.521564,-0.022694
127942682,843,2023-01-15 23:05:00.000000 UTC,"Penywern Road, Earl's Court","Imperial Road, Sands End",51.49159394,-0.192369256,17,51.47514228,-0.187278987
127942681,1061,2023-01-15 23:05:00.000000 UTC,"Aldersgate Street, Barbican","Clements Road, Bermondsey",51.5208417,-0.097340162,15,51.4954,-0.061698585
127942677,978,2023-01-15 23:04:00.000000 UTC,"Ford Road, Old Ford","Cleveland Way, Stepney",51.532513,-0.033085,18,51.520893,-0.051394
127942676,447,2023-01-15 23:04:00.000000 UTC,"Blythe Road, Olympia","Greyhound Road, Hammersmith",51.496927,-0.21350087,24,51.48606206,-0.214428378
127942675,231,2023-01-15 23:04:00.000000 UTC,"Bethnal Green Garden, Bethnal Green","New Road 1 , Whitechapel",51.52568,-0.055312,24,51.518154,-0.062697
127942674,1513,2023-01-15 23:04:00.000000 UTC,"Regency Street, Westminster","Bath Street, St. Luke's",51.49206037,-0.132224622,22,51.52589324,-0.090847761
127942672,798,2023-01-15 23:03:00.000000 UTC,"Beryl Road, Hammersmith","Vicarage Gate, Kensington",51.48814438,-0.222456468,26,51.50472376,-0.192538767
127942673,1551,2023-01-15 23:03:00.000000 UTC,"Victoria Rise, Clapham Common","Saltoun Road, Brixton",51.461376,-0.14780467,23,51.460232,-0.11537509
127942670,863,2023-01-15 23:03:00.000000 UTC,"New Globe Walk, Bankside","Jubilee Street, Stepney",51.5073853,-0.096440751,19,51.515975,-0.053177
127942668,376,2023-01-15 23:02:00.000000 UTC,"New North Road 2, Hoxton","Bethnal Green Road, Shoreditch",51.53114,-0.086016,22,51.52364804,-0.074754872
127942667,1051,2023-01-15 23:02:00.000000 UTC,"Bayley Street , Bloomsbury","York Way, Kings Cross",51.51858757,-0.132053392,25,51.541596,-0.12544145
127942665,539,2023-01-15 23:02:00.000000 UTC,"Vereker Road, West Kensington","Collingham Gardens, Earl's Court",51.48959104,-0.209378594,32,51.4916156,-0.186753859
127942669,804,2023-01-15 23:02:00.000000 UTC,"Bayley Street , Bloomsbury","Graham Street, Angel",51.51858757,-0.132053392,25,51.53266186,-0.099981142
127942666,617,2023-01-15 23:02:00.000000 UTC,"Green Street, Mayfair","Euston Road, Euston",51.51227622,-0.157436972,19,51.5262363,-0.134407652
127942662,203,2023-01-15 23:01:00.000000 UTC,"Bethnal Green Road, Shoreditch","Cheshire Street, Bethnal Green",51.52364804,-0.074754872,38,51.52388,-0.065076
127942658,821,2023-01-15 23:01:00.000000 UTC,"Sancroft Street, Vauxhall","St John's Crescent, Brixton",51.48947903,-0.115156562,24,51.466232,-0.11317995
127942660,1057,2023-01-15 23:01:00.000000 UTC,"LMU Commercial Road, Whitechapel","Old Montague Street, Whitechapel",51.51492456,-0.066078037,14,51.51793,-0.067937
127942659,390,2023-01-15 23:01:00.000000 UTC,"Devonshire Terrace, Bayswater","Crawford Street, Marylebone",51.51348,-0.17977,16,51.52026,-0.157183945
127942663,230,2023-01-15 23:01:00.000000 UTC,"Bethnal Green Road, Shoreditch","Cheshire Street, Bethnal Green",51.52364804,-0.074754872,38,51.52388,-0.065076
127942657,526,2023-01-15 23:01:00.000000 UTC,"Clinton Road, Mile End","Old Ford Road, Bethnal Green",51.525941,-0.036017,36,51.531127,-0.048017
127942656,206,2023-01-15 23:00:00.000000 UTC,"Eastbourne Mews, Paddington","Bishop's Bridge Road West, Bayswater",51.51641749,-0.179135079,34,51.51616,-0.18697
127942654,746,2023-01-15 23:00:00.000000 UTC,"Swan Street, The Borough","South Bermondsey Station, Bermondsey",51.50029631,-0.092762704,27,51.488067,-0.057774596
127942655,304,2023-01-15 23:00:00.000000 UTC,"Halford Road, West Kensington","St. Peter's Terrace, Fulham",51.483911,-0.19760944,24,51.47893931,-0.208485293
127942653,619,2023-01-15 22:59:00.000000 UTC,"Tavistock Place, Bloomsbury","Albany Street, The Regent's Park",51.5262503,-0.123509611,19,51.528302,-0.144466
127942651,993,2023-01-15 22:59:00.000000 UTC,"Red Lion Square, Holborn","North Wharf Road, Paddington",51.51943538,-0.119123345,16,51.51862243,-0.176645823
127942652,828,2023-01-15 22:59:00.000000 UTC,"Cheapside, Bank","Curlew Street, Shad Thames",51.51397065,-0.09294031,43,51.50227992,-0.074189225
127942648,339,2023-01-15 22:58:00.000000 UTC,"Baker Street, Marylebone","Greenberry Street, St.John's Wood",51.51891348,-0.156166631,22,51.53256,-0.16862
127942650,740,2023-01-15 22:58:00.000000 UTC,"Craven Street, Strand","Wenlock Road , Hoxton",51.50810309,-0.12602103,23,51.53099181,-0.093903825
127942649,425,2023-01-15 22:58:00.000000 UTC,"Imperial College, Knightsbridge","Albert Gate, Hyde Park",51.49942855,-0.179702476,21,51.50295379,-0.158456089
127942646,179,2023-01-15 22:57:00.000000 UTC,"Tachbrook Street, Victoria","Buckingham Gate, Westminster",51.49211134,-0.138364847,16,51.49886563,-0.137424571
127942647,1155,2023-01-15 22:57:00.000000 UTC,"Baylis Road, Waterloo","Pennington Street, Wapping",51.50144456,-0.110699309,22,51.508622,-0.065006
127942644,282,2023-01-15 22:56:00.000000 UTC,"Aldersgate Street, Barbican","Goswell Road (City Uni), Finsbury",51.5208417,-0.097340162,15,51.528246,-0.10102611
127942645,269,2023-01-15 22:56:00.000000 UTC,"Bermondsey Station, Bermondsey","Harris Academy, Bermondsey",51.497995,-0.063471392,30,51.492668,-0.072350665
127942643,283,2023-01-15 22:56:00.000000 UTC,"Aldersgate Street, Barbican","Goswell Road (City Uni), Finsbury",51.5208417,-0.097340162,15,51.528246,-0.10102611
127942642,1114,2023-01-15 22:56:00.000000 UTC,"Kennington Lane Rail Bridge, Vauxhall","Battersea Church Road, Battersea",51.4863434,-0.122492418,31,51.47696496,-0.174347066
127942638,336,2023-01-15 22:55:00.000000 UTC,"Dunston Road , Haggerston","Wellington Row, Bethnal Green",51.53658514,-0.075885686,43,51.528222,-0.069743
127942641,992,2023-01-15 22:55:00.000000 UTC,"Limerston Street, West Chelsea","Southwick Street, Paddington",51.485587,-0.18119,18,51.51595344,-0.169249375
127942640,600,2023-01-15 22:55:00.000000 UTC,"Grafton Street, Mayfair","Vincent Street, Pimlico",51.5099923,-0.143495266,18,51.493072,-0.129925
127942635,271,2023-01-15 22:54:00.000000 UTC,"LSBU (Borough Road), Elephant & Castle","Lambeth Palace Road, Waterloo",51.49874469,-0.103132904,35,51.5000891978,-0.116628700672
127942634,491,2023-01-15 22:53:00.000000 UTC,"Cheshire Street, Bethnal Green","Leonard Circus , Shoreditch",51.52388,-0.065076,28,51.52469624,-0.084439283
127942633,283,2023-01-15 22:53:00.000000 UTC,"Christopher Street, Liverpool Street","Bell Lane, Liverpool Street",51.52128377,-0.084605692,32,51.517475,-0.075855
127942630,416,2023-01-15 22:52:00.000000 UTC,"Sumner Place, South Kensington","Phene Street, Chelsea",51.49121192,-0.173715911,19,51.48498496,-0.167919869
127942628,825,2023-01-15 22:52:00.000000 UTC,"Chapel Place, Marylebone","Devonshire Terrace, Bayswater",51.51530805,-0.147203711,29,51.51348,-0.17977
127942632,223,2023-01-15 22:52:00.000000 UTC,"Pont Street, Knightsbridge","Sloane Avenue, Knightsbridge",51.4968865,-0.161203828,24,51.4931848,-0.167894973
127942627,1010,2023-01-15 22:52:00.000000 UTC,"Westbourne Grove, Bayswater","Harcourt Terrace, West Brompton",51.51552971,-0.190240716,26,51.48795853,-0.187404506
127942629,112,2023-01-15 22:52:00.000000 UTC,"King Edward Walk, Waterloo","Walnut Tree Walk, Vauxhall",51.49775,-0.10988,22,51.49368637,-0.111014912
127942625,913,2023-01-15 22:51:00.000000 UTC,"Pont Street, Knightsbridge","Sandilands Road, Walham Green",51.4968865,-0.161203828,24,51.473611,-0.191803
127942624,850,2023-01-15 22:51:00.000000 UTC,"Chapel Place, Marylebone","Devonshire Terrace, Bayswater",51.51530805,-0.147203711,29,51.51348,-0.17977
127942622,769,2023-01-15 22:51:00.000000 UTC,"Malet Street, Bloomsbury","Aldersgate Street, Barbican",51.52168078,-0.130431727,49,51.5208417,-0.097340162
127942623,357,2023-01-15 22:51:00.000000 UTC,"Bermondsey Street, Bermondsey","Snowsfields, London Bridge",51.49785559,-0.081608045,24,51.50215353,-0.083632928
127942626,123,2023-01-15 22:51:00.000000 UTC,"Brick Lane Market, Shoreditch","Palissy Street, Shoreditch",51.52261762,-0.071653961,24,51.526293,-0.073955
127942618,146,2023-01-15 22:50:00.000000 UTC,"Chadwell Street, Angel","Margery Street, Clerkenwell",51.53051587,-0.106408455,18,51.52659961,-0.112432615
127942619,140,2023-01-15 22:50:00.000000 UTC,"Chadwell Street, Angel","Margery Street, Clerkenwell",51.53051587,-0.106408455,18,51.52659961,-0.112432615
127942621,181,2023-01-15 22:50:00.000000 UTC,"Strata, Elephant & Castle","Rodney Road , Walworth",51.493146,-0.099828,41,51.49148474,-0.090220911
127942620,391,2023-01-15 22:50:00.000000 UTC,"Braham Street, Aldgate","Tanner Street, Bermondsey",51.51423368,-0.073537654,34,51.50064702,-0.078600401
127942617,1306,2023-01-15 22:49:00.000000 UTC,"London Fields, Hackney Central","William IV Street, Strand",51.54119,-0.058826101,21,51.50946212,-0.124749274
127942615,447,2023-01-15 22:49:00.000000 UTC,"St. John's Park, Cubitt Town","Import Dock, Canary Wharf",51.496454,-0.009506,30,51.505772,-0.016460175
127942616,814,2023-01-15 22:49:00.000000 UTC,"Panton Street, West End","Flood Street, Chelsea",51.50963938,-0.131510949,21,51.48802358,-0.166878535
127942614,971,2023-01-15 22:49:00.000000 UTC,"Danvers Street, West Chelsea","Austin Road, Battersea Park",51.48256792,-0.172078187,21,51.474376,-0.155442787
127942613,888,2023-01-15 22:49:00.000000 UTC,"Norton Folgate, Liverpool Street","Clinton Road, Mile End",51.52111369,-0.078869751,23,51.525941,-0.036017
127942612,471,2023-01-15 22:48:00.000000 UTC,"Crisp Road, Hammersmith","Richmond Way, Shepherd's Bush",51.48810829,-0.22660621,46,51.50035306,-0.217515071
127942606,2136,2023-01-15 22:48:00.000000 UTC,"Gloucester Road Station, South Kensington","Phillimore Gardens, Kensington",51.49418566,-0.18267094,15,51.49960695,-0.197574246
127942605,1102,2023-01-15 22:48:00.000000 UTC,"Frith Street, Soho","Frampton Street, Paddington",51.51310333,-0.13121385,18,51.5233534,-0.175116099
127942610,108,2023-01-15 22:48:00.000000 UTC,"Barons Court Station, West Kensington","Charing Cross Hospital, Hammersmith",51.49021762,-0.215087092,32,51.48728535,-0.217995921
127942608,252,2023-01-15 22:48:00.000000 UTC,"Birkenhead Street, King's Cross","Taviton Street, Bloomsbury",51.5301998755,-0.122299440803,27,51.52505093,-0.131161087
127942611,370,2023-01-15 22:48:00.000000 UTC,"Risinghill Street, Angel","Doric Way , Somers Town",51.5333196,-0.1117812,25,51.5288338,-0.132250369
127942609,1876,2023-01-15 22:48:00.000000 UTC,"Ackroyd Drive, Bow","Alpha Grove, Millwall",51.520398,-0.026768,29,51.497304,-0.022793
127942607,416,2023-01-15 22:48:00.000000 UTC,"Phene Street, Chelsea","Sloane Avenue, Knightsbridge",51.48498496,-0.167919869,24,51.4931848,-0.167894973
127942603,754,2023-01-15 22:47:00.000000 UTC,"Old Street Station, St. Luke's","Whiston Road, Haggerston",51.52548,-0.089659871,29,51.534464,-0.076341
127942602,516,2023-01-15 22:47:00.000000 UTC,"Temple Gardens, Temple","Great Dover Street, The Borough",51.510981,-0.10832249,24,51.49738251,-0.089446947
127942601,777,2023-01-15 22:47:00.000000 UTC,"Old Street Station, St. Luke's","Whiston Road, Haggerston",51.52548,-0.089659871,29,51.534464,-0.076341
127942598,285,2023-01-15 22:47:00.000000 UTC,"Normand Park, West Kensington","St. Peter's Terrace, Fulham",51.48438657,-0.20481514,24,51.47893931,-0.208485293
127942600,673,2023-01-15 22:47:00.000000 UTC,"Drury Lane, Covent Garden","Howick Place, Westminster",51.51477076,-0.12221963,27,51.49675303,-0.138733562
127942599,268,2023-01-15 22:47:00.000000 UTC,"Taviton Street, Bloomsbury","Red Lion Square, Holborn",51.52505093,-0.131161087,30,51.51943538,-0.119123345
127942594,546,2023-01-15 22:46:00.000000 UTC,"Prince Consort Road, Knightsbridge","Southwick Street, Paddington",51.49980661,-0.176415994,18,51.51595344,-0.169249375
127942597,368,2023-01-15 22:46:00.000000 UTC,"Farringdon Street, Holborn","Finsbury Library , Finsbury",51.516785,-0.10494775,25,51.52671796,-0.104298194
127942595,413,2023-01-15 22:46:00.000000 UTC,"Harcourt Terrace, West Brompton","Normand Park, West Kensington",51.48795853,-0.187404506,24,51.48438657,-0.20481514
127942596,740,2023-01-15 22:46:00.000000 UTC,"Drury Lane, Covent Garden","Lambeth Road, Vauxhall",51.51477076,-0.12221963,27,51.49488108,-0.117974901
127942590,259,2023-01-15 22:45:00.000000 UTC,"LMU Commercial Road, Whitechapel","Watney Street, Shadwell",51.51492456,-0.066078037,14,51.511542,-0.056667
127942592,2266,2023-01-15 22:45:00.000000 UTC,"Bell Lane, Liverpool Street","Dorothy Road, Clapham Junction",51.517475,-0.075855,23,51.46506424,-0.163750945
127942589,1199,2023-01-15 22:45:00.000000 UTC,"Curzon Street, Mayfair","Kennington Lane Rail Bridge, Vauxhall",51.50706909,-0.145904427,16,51.4863434,-0.122492418
127942588,243,2023-01-15 22:45:00.000000 UTC,"Erin Close, Walham Green","Normand Park, West Kensington",51.47946386,-0.195777222,24,51.48438657,-0.20481514
127942593,497,2023-01-15 22:45:00.000000 UTC,"Imperial Wharf Station, Sands End","Parsons Green Station, Parsons Green",51.474665,-0.18316517,25,51.475089,-0.201968
127942585,329,2023-01-15 22:44:00.000000 UTC,"Sun Street, Liverpool Street","Pitfield Street Central, Hoxton",51.520009,-0.083935724,24,51.53213,-0.08299
127942586,490,2023-01-15 22:44:00.000000 UTC,"World's End Place, West Chelsea","Queen's Gate (South), South Kensington",51.48180515,-0.18027465,22,51.49247977,-0.178433004
127942584,984,2023-01-15 22:43:00.000000 UTC,"Columbia Road, Shoreditch","Monier Road, Hackney Wick",51.528187,-0.075375,24,51.5403115,-0.021630359
127942583,1247,2023-01-15 22:43:00.000000 UTC,"Whitehall Place, Strand","Queen Victoria Street, St. Paul's",51.50654321,-0.123179697,46,51.51196176,-0.097441687
127942582,526,2023-01-15 22:43:00.000000 UTC,"Exhibition Road, Knightsbridge","Southwick Street, Paddington",51.499917,-0.174554,20,51.51595344,-0.169249375
127942580,416,2023-01-15 22:42:00.000000 UTC,"Tower Wharf, Bermondsey","Shadwell Station, Shadwell",51.500845,-0.074704305,20,51.511088,-0.057159
127942581,1253,2023-01-15 22:42:00.000000 UTC,"Stratford Station, Stratford","Stepney Green Station, Stepney",51.541793,-0.00481,28,51.521889,-0.04667
127942575,145,2023-01-15 22:41:00.000000 UTC,"Bunhill Row, Moorgate","Roscoe Street, St. Luke's",51.52085887,-0.089887855,30,51.52295439,-0.094934859
127942576,560,2023-01-15 22:41:00.000000 UTC,"British Museum, Bloomsbury","Finsbury Leisure Centre, St. Luke's",51.51908011,-0.124678402,35,51.52600832,-0.096317627
127942577,378,2023-01-15 22:41:00.000000 UTC,"Bourne Street, Belgravia","Tachbrook Street, Victoria",51.490959,-0.1532331,16,51.49211134,-0.138364847
127942578,354,2023-01-15 22:41:00.000000 UTC,"Warwick Road, Olympia","Shepherd's Bush Road North, Shepherd's Bush",51.49671237,-0.20528437,36,51.5015946,-0.222293381
127942579,490,2023-01-15 22:41:00.000000 UTC,"Gloucester Road (Central), South Kensington","West Kensington Station, West Kensington",51.49646288,-0.183289032,19,51.49087074,-0.206029743
127942573,869,2023-01-15 22:40:00.000000 UTC,"Duke Street Hill, London Bridge","Wellington Row, Bethnal Green",51.50630441,-0.087262995,21,51.528222,-0.069743
127942574,1435,2023-01-15 22:40:00.000000 UTC,"Fulham Broadway, Walham Green","Kennington Road Post Office, Oval",51.47993289,-0.19411695,26,51.48478899,-0.110683213
127942572,186,2023-01-15 22:39:00.000000 UTC,"Cleveland Way, Stepney","Stepney Green Station, Stepney",51.520893,-0.051394,36,51.521889,-0.04667
127942571,7633,2023-01-15 22:39:00.000000 UTC,"Whitehall Place, Strand","Tooley Street, Bermondsey",51.50654321,-0.123179697,46,51.5034938,-0.07962099
127942566,7711,2023-01-15 22:38:00.000000 UTC,"Whitehall Place, Strand","Tooley Street, Bermondsey",51.50654321,-0.123179697,46,51.5034938,-0.07962099
127942565,647,2023-01-15 22:38:00.000000 UTC,"Kennington Lane Rail Bridge, Vauxhall","Caldwell Street, Stockwell",51.4863434,-0.122492418,31,51.477839,-0.116493
127942567,796,2023-01-15 22:38:00.000000 UTC,"Carnegie Street, King's Cross","Bath Street, St. Luke's",51.53546778,-0.11619105,40,51.52589324,-0.090847761
127942569,753,2023-01-15 22:38:00.000000 UTC,"Panton Street, West End","Crawford Street, Marylebone",51.50963938,-0.131510949,21,51.52026,-0.157183945
127942568,1494,2023-01-15 22:38:00.000000 UTC,"Harrington Square 1, Camden Town","Normandy Road, Stockwell",51.53301907,-0.139174593,27,51.473874,-0.11258096
127942570,632,2023-01-15 22:38:00.000000 UTC,"Lincoln's Inn Fields, Holborn","Tate Modern, Bankside",51.5162778834,-0.118272991635,28,51.5067252868,-0.0988072461627
127942562,2015,2023-01-15 22:37:00.000000 UTC,"Tower Gardens , Tower","Tooley Street, Bermondsey",51.50950627,-0.075459482,24,51.5034938,-0.07962099
127942564,569,2023-01-15 22:37:00.000000 UTC,"Beaumont Street, Marylebone","London Street, Paddington",51.52200801,-0.151359288,23,51.515117,-0.17371276
127942563,588,2023-01-15 22:37:00.000000 UTC,"Gloucester Road (Central), South Kensington","Normand Park, West Kensington",51.49646288,-0.183289032,19,51.48438657,-0.20481514
127942560,661,2023-01-15 22:36:00.000000 UTC,"St. Martin's Street, West End","Roscoe Street, St. Luke's",51.50908747,-0.129697889,18,51.52295439,-0.094934859
127942558,737,2023-01-15 22:36:00.000000 UTC,"Westferry DLR, Limehouse","Ansell House, Stepney",51.509303,-0.025996,41,51.520019,-0.05438
127942559,820,2023-01-15 22:36:00.000000 UTC,"Euston Road, Euston","George Place Mews, Marylebone",51.5262363,-0.134407652,24,51.51689296,-0.158249929
127942561,1407,2023-01-15 22:36:00.000000 UTC,"Alderney Street, Pimlico","Beryl Road, Hammersmith",51.48805753,-0.140741432,14,51.48814438,-0.222456468
127942557,172,2023-01-15 22:36:00.000000 UTC,"Parsons Green Station, Parsons Green","St. Peter's Terrace, Fulham",51.475089,-0.201968,56,51.47893931,-0.208485293
127942554,2078,2023-01-15 22:35:00.000000 UTC,"Tower Gardens , Tower","Tooley Street, Bermondsey",51.50950627,-0.075459482,24,51.5034938,-0.07962099
127942553,1704,2023-01-15 22:35:00.000000 UTC,"Exhibition Road Museums 1, South Kensington","Cleaver Street, Kennington",51.496468,-0.17379696,13,51.488105,-0.110121
127942552,277,2023-01-15 22:35:00.000000 UTC,"Tanner Street, Bermondsey","Empire Square, The Borough",51.50064702,-0.078600401,41,51.50082346,-0.089740764
127942550,138,2023-01-15 22:35:00.000000 UTC,"Charing Cross Hospital, Hammersmith","Crabtree Lane, Fulham",51.48728535,-0.217995921,21,51.48294452,-0.219346128
127942546,639,2023-01-15 22:34:00.000000 UTC,"Queen's Gate (South), South Kensington","Michael Road, Walham Green",51.49247977,-0.178433004,25,51.47727637,-0.189210466
127942542,664,2023-01-15 22:34:00.000000 UTC,"British Museum, Bloomsbury","Birkenhead Street, King's Cross",51.51908011,-0.124678402,35,51.5301998755,-0.122299440803
127942544,668,2023-01-15 22:34:00.000000 UTC,"British Museum, Bloomsbury","Birkenhead Street, King's Cross",51.51908011,-0.124678402,35,51.5301998755,-0.122299440803
127942547,983,2023-01-15 22:34:00.000000 UTC,"Westfield Ariel Way, White City","Crabtree Lane, Fulham",51.509158,-0.224103,42,51.48294452,-0.219346128
127942548,470,2023-01-15 22:34:00.000000 UTC,"Granby Street, Shoreditch","Reardon Street, Wapping",51.525645,-0.069543,37,51.506946,-0.058681
127942545,1011,2023-01-15 22:34:00.000000 UTC,"Westfield Ariel Way, White City","Crabtree Lane, Fulham",51.509158,-0.224103,42,51.48294452,-0.219346128
127942541,3370,2023-01-15 22:34:00.000000 UTC,"Frith Street, Soho","Borough High Street, The Borough",51.51310333,-0.13121385,18,51.50069491,-0.094524319
127942543,367,2023-01-15 22:34:00.000000 UTC,"Goldsmith's Row, Haggerston","Murray Grove , Hoxton",51.531864,-0.066035,27,51.53089041,-0.089782579
127942537,1376,2023-01-15 22:33:00.000000 UTC,"Kingsway Southbound, Strand","Watney Market, Stepney",51.513875,-0.117774,33,51.5142228,-0.055656
127942536,887,2023-01-15 22:33:00.000000 UTC,"Exhibition Road Museums 2, South Kensington","Orbel Street, Battersea",51.495947,-0.17368958,14,51.47453545,-0.170210533
127942540,347,2023-01-15 22:33:00.000000 UTC,"Wren Street, Holborn","Bayley Street , Bloomsbury",51.524564,-0.116279,33,51.51858757,-0.132053392
127942538,582,2023-01-15 22:33:00.000000 UTC,"St. George's Square, Pimlico","Union Grove, Wandsworth Road",51.488226,-0.135635511,16,51.472993,-0.133972
127942539,381,2023-01-15 22:33:00.000000 UTC,"Blackfriars Station, St. Paul's","Farringdon Lane, Clerkenwell",51.511934,-0.10307894,35,51.52352001,-0.108340165
127942532,794,2023-01-15 22:32:00.000000 UTC,"British Museum, Bloomsbury","Birkenhead Street, King's Cross",51.51908011,-0.124678402,35,51.5301998755,-0.122299440803
127942529,1075,2023-01-15 22:32:00.000000 UTC,"Old Street Station, St. Luke's","Little Argyll Street, West End",51.52548,-0.089659871,29,51.51449962,-0.141423695
127942533,653,2023-01-15 22:32:00.000000 UTC,"Bath Street, St. Luke's","Cromer Street, Bloomsbury",51.52589324,-0.090847761,18,51.528279,-0.11955857
127942528,253,2023-01-15 22:32:00.000000 UTC,"Taviton Street, Bloomsbury","Birkenhead Street, King's Cross",51.52505093,-0.131161087,30,51.5301998755,-0.122299440803
127942530,324,2023-01-15 22:32:00.000000 UTC,"Hewison Street, Old Ford","Maplin Street, Mile End",51.533283,-0.028155,19,51.525501,-0.032267204
127942534,1786,2023-01-15 22:32:00.000000 UTC,"Frith Street, Soho","Waterloo Road, South Bank",51.51310333,-0.13121385,18,51.50486,-0.113001
127942531,1625,2023-01-15 22:32:00.000000 UTC,"Lambeth Palace Road, Waterloo","Royal College Street, Camden Town",51.5000891978,-0.116628700672,35,51.536264,-0.133952
127942535,205,2023-01-15 22:32:00.000000 UTC,"Gauden Road, Clapham","Clapham Common Station, Clapham Common",51.464995,-0.13090885,28,51.461388,-0.13922146
127942527,125,2023-01-15 22:31:00.000000 UTC,"Windsor Terrace, Hoxton","Eagle Wharf Road, Hoxton",51.52915444,-0.093421615,24,51.53356,-0.09315
127942525,1316,2023-01-15 22:31:00.000000 UTC,"Soho Square , Soho","Devonshire Terrace, Bayswater",51.51563144,-0.132328837,57,51.51348,-0.17977
127942526,1742,2023-01-15 22:31:00.000000 UTC,"Pitfield Street North,Hoxton","Canada Water Station, Rotherhithe",51.53558,-0.08249,28,51.498439,-0.049150215
127942524,993,2023-01-15 22:31:00.000000 UTC,"Granby Street, Shoreditch","Torrens Street, Angel",51.525645,-0.069543,37,51.53219984,-0.105480698
127942523,854,2023-01-15 22:31:00.000000 UTC,"British Museum, Bloomsbury","Birkenhead Street, King's Cross",51.51908011,-0.124678402,35,51.5301998755,-0.122299440803
127942521,659,2023-01-15 22:30:00.000000 UTC,"Aylward Street, Stepney","Bow Church Station, Bow",51.51563007,-0.049067243,22,51.528169,-0.018703
127942520,238,2023-01-15 22:30:00.000000 UTC,"Gauden Road, Clapham","Union Grove, Wandsworth Road",51.464995,-0.13090885,28,51.472993,-0.133972
127942522,412,2023-01-15 22:30:00.000000 UTC,"Castlehaven Road, Camden Town","Harrington Square 1, Camden Town",51.542138,-0.145393,29,51.53301907,-0.139174593
127942519,1358,2023-01-15 22:29:00.000000 UTC,"Seville Street, Knightsbridge","Binfield Road, Stockwell",51.50185512,-0.159237081,27,51.47250956,-0.122831913
127942517,1268,2023-01-15 22:29:00.000000 UTC,"Fire Brigade Pier, Vauxhall","Tysoe Street, Clerkenwell",51.49369988,-0.121394101,30,51.52644342,-0.109256828
127942514,489,2023-01-15 22:28:00.000000 UTC,"Lambeth Palace Road, Waterloo","Ontario Street, Elephant & Castle",51.5000891978,-0.116628700672,35,51.49652013,-0.101384068
127942510,1418,2023-01-15 22:28:00.000000 UTC,"Lightermans Road, Millwall","St. John's Park, Cubitt Town",51.499041,-0.020157,31,51.496454,-0.009506
127942512,323,2023-01-15 22:28:00.000000 UTC,"York Hall, Bethnal Green","Victoria Park Road, Hackney Central",51.528936,-0.055894,27,51.53642464,-0.054162264
127942516,531,2023-01-15 22:28:00.000000 UTC,"Ormonde Gate, Chelsea","Sumner Place, South Kensington",51.48796408,-0.161765173,24,51.49121192,-0.173715911
127942515,424,2023-01-15 22:28:00.000000 UTC,"Shouldham Street, Marylebone","Cleveland Gardens, Bayswater",51.51809,-0.163609,16,51.515607,-0.183118788
127942513,807,2023-01-15 22:28:00.000000 UTC,"Bishop's Avenue, Fulham","Erin Close, Walham Green",51.47303687,-0.214749808,46,51.47946386,-0.195777222
127942511,1953,2023-01-15 22:28:00.000000 UTC,"Frith Street, Soho","Sandilands Road, Walham Green",51.51310333,-0.13121385,18,51.473611,-0.191803
127942508,2236,2023-01-15 22:27:00.000000 UTC,"Hawley Crescent, Camden Town","Aldersgate Street, Barbican",51.54100708,-0.14326094,22,51.5208417,-0.097340162
127942505,765,2023-01-15 22:26:00.000000 UTC,"South Kensington Station, South Kensington","Wright's Lane, Kensington",51.494412,-0.173881,15,51.50039792,-0.193068385
127942507,1628,2023-01-15 22:26:00.000000 UTC,"Wormwood Street, Liverpool Street","Ashmole Estate, Oval",51.51615461,-0.082422399,16,51.48267821,-0.117661574
127942504,388,2023-01-15 22:26:00.000000 UTC,"Waterloo Station 3, Waterloo","Drury Lane, Covent Garden",51.50379168,-0.11282408,35,51.51477076,-0.12221963
127942506,2252,2023-01-15 22:26:00.000000 UTC,"Hawley Crescent, Camden Town","Aldersgate Street, Barbican",51.54100708,-0.14326094,22,51.5208417,-0.097340162
127942503,652,2023-01-15 22:26:00.000000 UTC,"Thorndike Close, West Chelsea","Hibbert Street, Battersea",51.48089844,-0.183853573,25,51.46517078,-0.18038939
127942498,1029,2023-01-15 22:25:00.000000 UTC,"Rodney Road , Walworth","Bermondsey Station, Bermondsey",51.49148474,-0.090220911,24,51.497995,-0.063471392
127942497,730,2023-01-15 22:25:00.000000 UTC,"Cadogan Close, Victoria Park","Maplin Street, Mile End",51.54211855,-0.028941601,22,51.525501,-0.032267204
127942501,691,2023-01-15 22:25:00.000000 UTC,"Harper Road, The Borough","Old Montague Street, Whitechapel",51.49859784,-0.096191134,42,51.51793,-0.067937
127942494,1106,2023-01-15 22:25:00.000000 UTC,"Riverlight North, Nine Elms","Swan Street, The Borough",51.482362,-0.13612398,24,51.50029631,-0.092762704
127942499,332,2023-01-15 22:25:00.000000 UTC,"Euston Square Gardens, Euston","Wren Street, Holborn",51.527068,-0.13186102,30,51.524564,-0.116279
127942500,1180,2023-01-15 22:25:00.000000 UTC,"William IV Street, Strand","St. Katharine's Way, Tower",51.50946212,-0.124749274,26,51.505697,-0.070542
127942502,538,2023-01-15 22:25:00.000000 UTC,"Eversholt Street , Camden Town","Tysoe Street, Clerkenwell",51.53300545,-0.136792671,16,51.52644342,-0.109256828
127942496,815,2023-01-15 22:25:00.000000 UTC,"Allington Street, Victoria","Porchester Place, Paddington",51.496863,-0.1429434,28,51.5147461,-0.16516400000000431
127942486,781,2023-01-15 22:24:00.000000 UTC,"Cranmer Road, Stockwell","Dickens Square, Borough",51.479601,-0.11147178,24,51.49679128,-0.093913472
127942487,256,2023-01-15 22:24:00.000000 UTC,"Bow Church Station, Bow","Hewison Street, Old Ford",51.528169,-0.018703,39,51.533283,-0.028155
127942490,2138,2023-01-15 22:24:00.000000 UTC,"Cranmer Road, Stockwell","Greenland Road, Camden Town",51.479601,-0.11147178,24,51.539099,-0.141728
127942488,259,2023-01-15 22:24:00.000000 UTC,"Sun Street, Liverpool Street","Fanshaw Street, Hoxton",51.520009,-0.083935724,24,51.52953709,-0.083353323
127942489,752,2023-01-15 22:24:00.000000 UTC,"Cranmer Road, Stockwell","Dickens Square, Borough",51.479601,-0.11147178,24,51.49679128,-0.093913472
127942493,681,2023-01-15 22:24:00.000000 UTC,"Strand, Strand","Page Street, Westminster",51.512582,-0.11505729999998948,35,51.493978,-0.127554
127942492,268,2023-01-15 22:24:00.000000 UTC,"Merchant Street, Bow","Hewison Street, Old Ford",51.526578,-0.027581,27,51.533283,-0.028155
127942485,965,2023-01-15 22:23:00.000000 UTC,"Great Russell Street, Bloomsbury","Pitfield Street Central, Hoxton",51.51772703,-0.127854211,26,51.53213,-0.08299
127942483,514,2023-01-15 22:23:00.000000 UTC,"William IV Street, Strand","Borough Road, Elephant & Castle",51.50946212,-0.124749274,26,51.49889832,-0.100440521
127942481,460,2023-01-15 22:22:00.000000 UTC,"Phene Street, Chelsea","Surrey Lane, Battersea",51.48498496,-0.167919869,24,51.47518024,-0.167160736
127942482,415,2023-01-15 22:22:00.000000 UTC,"Taviton Street, Bloomsbury","Great Percy Street, Clerkenwell",51.52505093,-0.131161087,30,51.52891573,-0.115480888
127942480,681,2023-01-15 22:22:00.000000 UTC,"Moor Street, Soho","Frampton Street, Paddington",51.51352755,-0.130110822,16,51.5233534,-0.175116099
127942477,2787,2023-01-15 22:21:00.000000 UTC,"Birkenhead Street, King's Cross","Aintree Street, Fulham",51.5301998755,-0.122299440803,27,51.48102131,-0.209973497
127942474,216,2023-01-15 22:21:00.000000 UTC,"Ansell House, Stepney","Rectory Square, Stepney",51.520019,-0.05438,41,51.518369,-0.043371
127942478,759,2023-01-15 22:21:00.000000 UTC,"Porchester Place, Paddington","Broadwick Street, Soho",51.5147461,-0.16516400000000431,18,51.5136846,-0.135580879
127942475,1234,2023-01-15 22:21:00.000000 UTC,"New Fetter Lane, Holborn","New North Road 2, Hoxton",51.517428,-0.107987,21,51.53114,-0.086016
127942479,179,2023-01-15 22:21:00.000000 UTC,"Norton Folgate, Liverpool Street","Bethnal Green Road, Shoreditch",51.52111369,-0.078869751,23,51.52364804,-0.074754872
127942476,420,2023-01-15 22:21:00.000000 UTC,"Hampstead Road, Euston","St Martins Close, Camden Town",51.52554222,-0.138231303,54,51.538792,-0.138535
127942468,63,2023-01-15 22:20:00.000000 UTC,"Shepherd's Bush Road North, Shepherd's Bush","Blythe Road West, Shepherd's Bush",51.5015946,-0.222293381,34,51.49968,-0.221791551
127942471,307,2023-01-15 22:20:00.000000 UTC,"Erin Close, Walham Green","Irene Road, Parsons Green",51.47946386,-0.195777222,24,51.4737636,-0.197010096
127942470,1017,2023-01-15 22:20:00.000000 UTC,"Kennington Lane Rail Bridge, Vauxhall","Vicarage Crescent, Battersea",51.4863434,-0.122492418,31,51.47287627,-0.176267008
127942472,657,2023-01-15 22:20:00.000000 UTC,"Euston Road, Euston","Little Argyll Street, West End",51.5262363,-0.134407652,24,51.51449962,-0.141423695
127942473,645,2023-01-15 22:20:00.000000 UTC,"Euston Road, Euston","Little Argyll Street, West End",51.5262363,-0.134407652,24,51.51449962,-0.141423695
127942469,257,2023-01-15 22:20:00.000000 UTC,"Doric Way , Somers Town","Warren Street Station, Euston",51.5288338,-0.132250369,50,51.52443845,-0.138019439
127942463,8885,2023-01-15 22:19:00.000000 UTC,"Craven Street, Strand","Tooley Street, Bermondsey",51.50810309,-0.12602103,23,51.5034938,-0.07962099
127942465,279,2023-01-15 22:19:00.000000 UTC,"Long Lane , Bermondsey","Webber Street , Southwark",51.49907558,-0.085666316,20,51.50069361,-0.102091246
127942464,982,2023-01-15 22:19:00.000000 UTC,"Kennington Road Post Office, Oval","Ormonde Gate, Chelsea",51.48478899,-0.110683213,18,51.48796408,-0.161765173
127942466,342,2023-01-15 22:19:00.000000 UTC,"Clarence Walk, Stockwell","Cranmer Road, Stockwell",51.47073264,-0.126994068,28,51.479601,-0.11147178
127942467,616,2023-01-15 22:19:00.000000 UTC,"Lots Road, West Chelsea","Ram Street, Wandsworth",51.4795738,-0.17903854,24,51.45752945,-0.192165613
127942462,339,2023-01-15 22:19:00.000000 UTC,"Tooley Street, Bermondsey","Leman Street, Aldgate",51.5034938,-0.07962099,27,51.51236389,-0.06954201
127942460,361,2023-01-15 22:18:00.000000 UTC,"Shadwell Station, Shadwell","Nesham Street, Wapping",51.511088,-0.057159,35,51.507131,-0.06691
127942452,1124,2023-01-15 22:18:00.000000 UTC,"South Kensington Station, South Kensington","Baker Street, Marylebone",51.494412,-0.173881,15,51.51891348,-0.156166631
127942448,1711,2023-01-15 22:18:00.000000 UTC,"Prince Consort Road, Knightsbridge","London Street, Paddington",51.49980661,-0.176415994,18,51.515117,-0.17371276
127942456,1101,2023-01-15 22:18:00.000000 UTC,"Margery Street, Clerkenwell","Rochester Row, Westminster",51.52659961,-0.112432615,19,51.49582705,-0.13547809
127942447,812,2023-01-15 22:18:00.000000 UTC,"Euston Road, Euston","Little Argyll Street, West End",51.5262363,-0.134407652,24,51.51449962,-0.141423695
127942450,366,2023-01-15 22:18:00.000000 UTC,"Old Street Station, St. Luke's","Sadlers Sports Centre, Finsbury",51.52548,-0.089659871,29,51.52486887,-0.099489485
127942455,336,2023-01-15 22:18:00.000000 UTC,"Drayton Gardens, West Chelsea","Sloane Avenue, Knightsbridge",51.487196,-0.179369,18,51.4931848,-0.167894973
127942458,647,2023-01-15 22:18:00.000000 UTC,"Cleveland Way, Stepney","Old Ford Road, Bethnal Green",51.520893,-0.051394,36,51.531127,-0.048017
127942449,822,2023-01-15 22:18:00.000000 UTC,"Euston Road, Euston","Little Argyll Street, West End",51.5262363,-0.134407652,24,51.51449962,-0.141423695
127942451,1339,2023-01-15 22:18:00.000000 UTC,"Blackfriars Station, St. Paul's","Limerston Street, West Chelsea",51.511934,-0.10307894,35,51.485587,-0.18119
127942457,769,2023-01-15 22:18:00.000000 UTC,"Brushfield Street, Liverpool Street","Lambeth North Station, Waterloo",51.518908,-0.079249,34,51.49914063,-0.112031483
127942461,642,2023-01-15 22:18:00.000000 UTC,"Shoreditch Court, Haggerston","York Hall, Bethnal Green",51.53908372,-0.070329419,35,51.528936,-0.055894
127942459,341,2023-01-15 22:18:00.000000 UTC,"Old Street Station, St. Luke's","Sadlers Sports Centre, Finsbury",51.52548,-0.089659871,29,51.52486887,-0.099489485
127942454,490,2023-01-15 22:18:00.000000 UTC,"Euston Road, Euston","Brunswick Square, Bloomsbury",51.5262363,-0.134407652,24,51.52395143,-0.122502346
127942441,1633,2023-01-15 22:17:00.000000 UTC,"Ethelburga Estate, Battersea Park","Southwark Station 2, Southwark",51.47729232,-0.16478637,30,51.504044,-0.104778
127942442,736,2023-01-15 22:17:00.000000 UTC,"Albert Embankment, Vauxhall","Elizabeth Bridge, Victoria",51.49043573,-0.122806861,24,51.49236962,-0.147478734
127942445,967,2023-01-15 22:17:00.000000 UTC,"De Vere Gardens, Kensington","Warwick Avenue Station, Maida Vale",51.50173726,-0.184980612,28,51.52334476,-0.183846408
127942439,801,2023-01-15 22:17:00.000000 UTC,"Nesham Street, Wapping","Dunston Road , Haggerston",51.507131,-0.06691,16,51.53658514,-0.075885686
127942444,4509,2023-01-15 22:17:00.000000 UTC,"Fournier Street, Whitechapel","Charlbert Street, St. John's Wood",51.519362,-0.074431,18,51.53430039,-0.1680743
127942440,762,2023-01-15 22:17:00.000000 UTC,"Albert Embankment, Vauxhall","Elizabeth Bridge, Victoria",51.49043573,-0.122806861,24,51.49236962,-0.147478734
127942443,736,2023-01-15 22:17:00.000000 UTC,"Queen's Gate (South), South Kensington","Prince of Wales Drive, Battersea Park",51.49247977,-0.178433004,25,51.47515398,-0.159169801
127942433,1124,2023-01-15 22:16:00.000000 UTC,"Exhibition Road, Knightsbridge","Star Road, West Kensington",51.499917,-0.174554,20,51.48724429,-0.205279052
127942434,1060,2023-01-15 22:16:00.000000 UTC,"Charlbert Street, St. John's Wood","Chadwell Street, Angel",51.53430039,-0.1680743,16,51.53051587,-0.106408455
127942431,102,2023-01-15 22:16:00.000000 UTC,"Broadcasting House, Marylebone","Portland Place, Marylebone",51.51811784,-0.144228881,18,51.52071513,-0.14521173
127942438,925,2023-01-15 22:16:00.000000 UTC,"Euston Road, Euston","Little Argyll Street, West End",51.5262363,-0.134407652,24,51.51449962,-0.141423695
127942436,923,2023-01-15 22:16:00.000000 UTC,"Euston Road, Euston","Little Argyll Street, West End",51.5262363,-0.134407652,24,51.51449962,-0.141423695
127942435,889,2023-01-15 22:16:00.000000 UTC,"Albert Embankment, Vauxhall","Brandon Street, Walworth",51.49043573,-0.122806861,24,51.489102,-0.0915489
127942432,527,2023-01-15 22:16:00.000000 UTC,"Exhibition Road, Knightsbridge","Bramham Gardens, Earl's Court",51.499917,-0.174554,20,51.49016361,-0.19039362
127942425,1218,2023-01-15 22:15:00.000000 UTC,"Endsleigh Gardens, Euston","Walworth Square, Walworth",51.52683806,-0.130504336,32,51.491327,-0.096518684
127942426,512,2023-01-15 22:15:00.000000 UTC,"Harrington Square 1, Camden Town","Strand, Strand",51.53301907,-0.139174593,27,51.512582,-0.11505729999998948
127942427,378,2023-01-15 22:15:00.000000 UTC,"Import Dock, Canary Wharf","Stainsby Road , Poplar",51.505772,-0.016460175,39,51.51542791,-0.02356501
127942430,752,2023-01-15 22:15:00.000000 UTC,"Selby Street, Whitechapel","Fanshaw Street, Hoxton",51.521905,-0.063386,17,51.52953709,-0.083353323
127942428,3219,2023-01-15 22:15:00.000000 UTC,"Westminster Pier, Westminster","Penywern Road, Earl's Court",51.501513,-0.12382322,27,51.49159394,-0.192369256
127942423,2102,2023-01-15 22:14:00.000000 UTC,"Birkenhead Street, King's Cross","Hortensia Road, West Brompton",51.5301998755,-0.122299440803,27,51.48176572,-0.185273723
127942422,418,2023-01-15 22:14:00.000000 UTC,"Derry Street, Kensington","Gloucester Road Station, South Kensington",51.50136494,-0.191462381,18,51.49418566,-0.18267094
127942424,348,2023-01-15 22:14:00.000000 UTC,"Shoreditch High Street, Shoreditch","New Road 1 , Whitechapel",51.5263778,-0.078130921,41,51.518154,-0.062697
127942416,1158,2023-01-15 22:13:00.000000 UTC,"Scala Street, Fitzrovia","Crawford Street, Marylebone",51.51991453,-0.136039674,21,51.52026,-0.157183945
127942414,735,2023-01-15 22:13:00.000000 UTC,"Derry Street, Kensington","Thorndike Close, West Chelsea",51.50136494,-0.191462381,18,51.48089844,-0.183853573
127942417,186,2023-01-15 22:13:00.000000 UTC,"Finsbury Leisure Centre, St. Luke's","Baldwin Street, St. Luke's",51.52600832,-0.096317627,20,51.52702563,-0.088542771
127942418,722,2023-01-15 22:13:00.000000 UTC,"St Mary's Hospital, Paddington","Broadwick Street, Soho",51.518268,-0.17110323,20,51.5136846,-0.135580879
127942419,2581,2023-01-15 22:13:00.000000 UTC,"Exhibition Road, Knightsbridge","Pitfield Street North,Hoxton",51.499917,-0.174554,20,51.53558,-0.08249
127942421,1064,2023-01-15 22:13:00.000000 UTC,"Fulham Park Road, Fulham","Westfield Ariel Way, White City",51.473471,-0.20782,27,51.509158,-0.224103
127942420,992,2023-01-15 22:13:00.000000 UTC,"Twig Folly Bridge, Mile End","Old Street Station, St. Luke's",51.530326,-0.042744,21,51.52548,-0.089659871
127942415,1112,2023-01-15 22:13:00.000000 UTC,"Euston Road, Euston","Little Argyll Street, West End",51.5262363,-0.134407652,24,51.51449962,-0.141423695
127942413,955,2023-01-15 22:12:00.000000 UTC,"Murray Grove , Hoxton","Union Street, The Borough",51.53089041,-0.089782579,27,51.50368837,-0.098497684
127942412,463,2023-01-15 22:12:00.000000 UTC,"Frith Street, Soho","Northington Street , Holborn",51.51310333,-0.13121385,18,51.5222641,-0.114079481
127942406,367,2023-01-15 22:11:00.000000 UTC,"Grenfell Road, Avondale","All Saints Church, Portobello",51.5129006,-0.214762686,24,51.51632095,-0.202608612
127942408,585,2023-01-15 22:11:00.000000 UTC,"Battersea Park Road, Nine Elms","Kennington Station, Kennington",51.4795017,-0.141770709,27,51.488852,-0.105593
127942411,173,2023-01-15 22:11:00.000000 UTC,"Fisherman's Walk West, Canary Wharf","Westferry DLR, Limehouse",51.50623,-0.02296,36,51.509303,-0.025996
127942409,567,2023-01-15 22:11:00.000000 UTC,"Birkenhead Street, King's Cross","Hatton Wall, Holborn",51.5301998755,-0.122299440803,27,51.5216612,-0.109006325
127942407,1126,2023-01-15 22:11:00.000000 UTC,"Maida Vale, Maida Vale","De Vere Gardens, Kensington",51.529857,-0.18348604,39,51.50173726,-0.184980612
127942410,266,2023-01-15 22:11:00.000000 UTC,"Ormonde Gate, Chelsea","Chelsea Bridge, Pimlico",51.48796408,-0.161765173,24,51.485821,-0.149004
127942402,536,2023-01-15 22:10:00.000000 UTC,"Bruton Street, Mayfair","Shouldham Street, Marylebone",51.51073687,-0.144165239,21,51.51809,-0.163609
127942403,232,2023-01-15 22:10:00.000000 UTC,"East Ferry Road, Cubitt Town","Jubilee Crescent, Cubitt Town",51.49447,-0.014409,17,51.493381,-0.007542
127942400,272,2023-01-15 22:10:00.000000 UTC,"Parsons Green Station, Parsons Green","Normand Park, West Kensington",51.475089,-0.201968,56,51.48438657,-0.20481514
127942401,618,2023-01-15 22:10:00.000000 UTC,"Handyside Street, King's Cross","Islington Green, Angel",51.5372405623,-0.124807385707,27,51.53638435,-0.102757578
127942404,317,2023-01-15 22:10:00.000000 UTC,"Wendon Street, Old Ford","Merchant Street, Bow",51.53603947,-0.026262677,18,51.526578,-0.027581
127942399,1823,2023-01-15 22:10:00.000000 UTC,"Hartington Road, Stockwell","Falkirk Street, Hoxton",51.47787084,-0.126874471,35,51.53095071,-0.078505384
127942405,368,2023-01-15 22:10:00.000000 UTC,"Kensington Church Street, Kensington","Pembridge Villas, Notting Hill",51.50315739,-0.191496313,17,51.51108452,-0.197524944
127942398,504,2023-01-15 22:10:00.000000 UTC,"Jubilee Plaza, Canary Wharf","Spindrift Avenue, Millwall",51.5034,-0.020242300000006708,63,51.49109,-0.018716
127942394,461,2023-01-15 22:09:00.000000 UTC,"Drayton Gardens, West Chelsea","De Vere Gardens, Kensington",51.487196,-0.179369,18,51.50173726,-0.184980612
127942395,784,2023-01-15 22:09:00.000000 UTC,"Shoreditch High Street, Shoreditch","Percival Street, Finsbury",51.5263778,-0.078130921,41,51.526153,-0.102208
127942392,257,2023-01-15 22:09:00.000000 UTC,"Strand, Strand","Farringdon Street, Holborn",51.512582,-0.11505729999998948,35,51.516785,-0.10494775
127942390,1912,2023-01-15 22:09:00.000000 UTC,"Frith Street, Soho","London Street, Paddington",51.51310333,-0.13121385,18,51.515117,-0.17371276
127942393,228,2023-01-15 22:09:00.000000 UTC,"Vauxhall Cross, Vauxhall","Rampayne Street, Pimlico",51.48591714,-0.124469948,17,51.48997562,-0.132845681
127942391,1522,2023-01-15 22:09:00.000000 UTC,"Lightermans Road, Millwall","Braham Street, Aldgate",51.499041,-0.020157,31,51.51423368,-0.073537654
127942397,1402,2023-01-15 22:09:00.000000 UTC,"William IV Street, Strand","Harris Academy, Bermondsey",51.50946212,-0.124749274,26,51.492668,-0.072350665
127942396,1024,2023-01-15 22:09:00.000000 UTC,"Royal London Hospital, Whitechapel","Bow Church Station, Bow",51.518675,-0.06111,42,51.528169,-0.018703
127942389,256,2023-01-15 22:08:00.000000 UTC,"Flamborough Street, Limehouse","Harford Street, Mile End",51.5128711,-0.0389866,25,51.521564,-0.039264
127942388,1955,2023-01-15 22:08:00.000000 UTC,"Frith Street, Soho","London Street, Paddington",51.51310333,-0.13121385,18,51.515117,-0.17371276
127942384,1294,2023-01-15 22:07:00.000000 UTC,"Finsbury Leisure Centre, St. Luke's","Globe Town Market, Bethnal Green",51.52600832,-0.096317627,20,51.528869,-0.047548
127942387,198,2023-01-15 22:07:00.000000 UTC,"Barons Court Station, West Kensington","Greyhound Road, Hammersmith",51.49021762,-0.215087092,32,51.48606206,-0.214428378
127942386,217,2023-01-15 22:07:00.000000 UTC,"Barons Court Station, West Kensington","Greyhound Road, Hammersmith",51.49021762,-0.215087092,32,51.48606206,-0.214428378
127942383,2407,2023-01-15 22:06:00.000000 UTC,"Imperial College, Knightsbridge","London Street, Paddington",51.49942855,-0.179702476,21,51.515117,-0.17371276
127942382,299,2023-01-15 22:06:00.000000 UTC,"Bayswater Road, Hyde Park","Porchester Place, Paddington",51.511933,-0.174411,27,51.5147461,-0.16516400000000431
127942379,453,2023-01-15 22:05:00.000000 UTC,"Lindfield Street, Poplar","Aston Street, Stepney",51.513757,-0.020467,44,51.516,-0.038775
127942380,271,2023-01-15 22:05:00.000000 UTC,"Duke Street Hill, London Bridge","Bermondsey Street, Bermondsey",51.50630441,-0.087262995,21,51.49785559,-0.081608045
127942381,481,2023-01-15 22:05:00.000000 UTC,"Great Russell Street, Bloomsbury","Berry Street, Clerkenwell",51.51772703,-0.127854211,26,51.52285301,-0.099994052
127942377,1136,2023-01-15 22:05:00.000000 UTC,"North Wharf Road, Paddington","Risinghill Street, Angel",51.51862243,-0.176645823,25,51.5333196,-0.1117812
127942372,274,2023-01-15 22:04:00.000000 UTC,"Royal London Hospital, Whitechapel","Aylward Street, Stepney",51.518675,-0.06111,42,51.51563007,-0.049067243
127942375,404,2023-01-15 22:04:00.000000 UTC,"Devonshire Terrace, Bayswater","Green Street, Mayfair",51.51348,-0.17977,16,51.51227622,-0.157436972
127942373,1037,2023-01-15 22:04:00.000000 UTC,"Lambeth Palace Road, Waterloo","Austin Road, Battersea Park",51.5000891978,-0.116628700672,35,51.474376,-0.155442787
127942374,279,2023-01-15 22:04:00.000000 UTC,"Crisp Road, Hammersmith","Shepherd's Bush Road North, Shepherd's Bush",51.48810829,-0.22660621,46,51.5015946,-0.222293381
127942378,62,2023-01-15 22:04:00.000000 UTC,"Blythe Road West, Shepherd's Bush","Shepherd's Bush Road North, Shepherd's Bush",51.49968,-0.221791551,21,51.5015946,-0.222293381
127942376,370,2023-01-15 22:04:00.000000 UTC,"Imperial College, Knightsbridge","South Parade, Chelsea",51.49942855,-0.179702476,21,51.48902,-0.17524
127942371,1680,2023-01-15 22:04:00.000000 UTC,"Craven Street, Strand","Great Tower Street, Monument",51.50810309,-0.12602103,23,51.51048489,-0.082989638
127942370,1691,2023-01-15 22:04:00.000000 UTC,"Craven Street, Strand","Great Tower Street, Monument",51.50810309,-0.12602103,23,51.51048489,-0.082989638
127942368,474,2023-01-15 22:03:00.000000 UTC,"Claverton Street, Pimlico","The Vale, Chelsea",51.48483991,-0.138089062,32,51.48512191,-0.174971902
127942369,291,2023-01-15 22:03:00.000000 UTC,"Barons Court Station, West Kensington","Humbolt Road, Fulham",51.49021762,-0.215087092,32,51.48321729,-0.211860644
127942367,408,2023-01-15 22:02:00.000000 UTC,"Cadogan Close, Victoria Park","Victoria Park Road, Hackney Central",51.54211855,-0.028941601,22,51.53642464,-0.054162264
127942363,1424,2023-01-15 22:02:00.000000 UTC,"Hibbert Street, Battersea","Storey's Gate, Westminster",51.46517078,-0.18038939,36,51.50070305,-0.129698963
127942365,673,2023-01-15 22:02:00.000000 UTC,"Monier Road, Hackney Wick","Mile End Park Leisure Centre, Mile End",51.5403115,-0.021630359,27,51.52059714,-0.032566533
127942364,1946,2023-01-15 22:02:00.000000 UTC,"Northumberland Avenue, Strand","Duke Street Hill, London Bridge",51.506767,-0.123702,37,51.50630441,-0.087262995
127942366,837,2023-01-15 22:02:00.000000 UTC,"De Vere Gardens, Kensington","Hansard Mews, Holland Park",51.50173726,-0.184980612,28,51.503802,-0.215808
127942358,2009,2023-01-15 22:01:00.000000 UTC,"Northumberland Avenue, Strand","Duke Street Hill, London Bridge",51.506767,-0.123702,37,51.50630441,-0.087262995
127942361,402,2023-01-15 22:01:00.000000 UTC,"Fulham Broadway, Walham Green","Drayton Gardens, West Chelsea",51.47993289,-0.19411695,26,51.487196,-0.179369
127942360,232,2023-01-15 22:01:00.000000 UTC,"Porchester Place, Paddington","Bayswater Road, Hyde Park",51.5147461,-0.16516400000000431,18,51.511933,-0.174411
127942359,591,2023-01-15 22:01:00.000000 UTC,"Blythe Road West, Shepherd's Bush","Star Road, West Kensington",51.49968,-0.221791551,21,51.48724429,-0.205279052
127942362,580,2023-01-15 22:01:00.000000 UTC,"Southampton Place, Holborn","Roscoe Street, St. Luke's",51.51760685,-0.121328408,20,51.52295439,-0.094934859
127942350,116,2023-01-15 22:00:00.000000 UTC,"Bunhill Row, Moorgate","Old Street Station, St. Luke's",51.52085887,-0.089887855,30,51.52548,-0.089659871
127942349,1391,2023-01-15 22:00:00.000000 UTC,"Clerkenwell Green, Clerkenwell","Albany Street, The Regent's Park",51.52326004,-0.104708922,21,51.528302,-0.144466
127942355,319,2023-01-15 22:00:00.000000 UTC,"South Lambeth Road, Vauxhall","Clarence Walk, Stockwell",51.481747,-0.124642,21,51.47073264,-0.126994068
127942357,402,2023-01-15 22:00:00.000000 UTC,"Brook Green South, Brook Green","Greyhound Road, Hammersmith",51.49434708,-0.215804559,33,51.48606206,-0.214428378
127942351,625,2023-01-15 22:00:00.000000 UTC,"Lambeth Palace Road, Waterloo","Caldwell Street, Stockwell",51.5000891978,-0.116628700672,35,51.477839,-0.116493
127942354,414,2023-01-15 22:00:00.000000 UTC,"Brook Green South, Brook Green","Greyhound Road, Hammersmith",51.49434708,-0.215804559,33,51.48606206,-0.214428378
127942352,628,2023-01-15 22:00:00.000000 UTC,"Gloucester Street, Pimlico","Hartington Road, Stockwell",51.49096258,-0.139625122,25,51.47787084,-0.126874471
127942353,321,2023-01-15 22:00:00.000000 UTC,"Kennington Lane Rail Bridge, Vauxhall","Kennington Station, Kennington",51.4863434,-0.122492418,31,51.488852,-0.105593
127942356,166,2023-01-15 22:00:00.000000 UTC,"Kennington Cross, Kennington","Kennington Oval, Oval",51.48894022,-0.111435796,47,51.483145,-0.113134
127942346,2392,2023-01-15 21:59:00.000000 UTC,"Ethelburga Estate, Battersea Park","Lincoln's Inn Fields, Holborn",51.47729232,-0.16478637,30,51.5162778834,-0.118272991635
127942347,1713,2023-01-15 21:59:00.000000 UTC,"Prince Consort Road, Knightsbridge","Harper Road, The Borough",51.49980661,-0.176415994,18,51.49859784,-0.096191134
127942345,767,2023-01-15 21:59:00.000000 UTC,"Bolsover Street, Fitzrovia","Devonshire Terrace, Bayswater",51.52351808,-0.143613641,19,51.51348,-0.17977
127942348,1747,2023-01-15 21:59:00.000000 UTC,"Imperial College, Knightsbridge","Queen's Circus, Battersea Park",51.49942855,-0.179702476,21,51.47761941,-0.149551631
127942343,1113,2023-01-15 21:58:00.000000 UTC,"Finsbury Leisure Centre, St. Luke's","Bermondsey Street, Bermondsey",51.52600832,-0.096317627,20,51.49785559,-0.081608045
127942342,736,2023-01-15 21:58:00.000000 UTC,"Little Argyll Street, West End","Finsbury Leisure Centre, St. Luke's",51.51449962,-0.141423695,21,51.52600832,-0.096317627
127942344,1929,2023-01-15 21:58:00.000000 UTC,"Houndsditch, Aldgate","Edgware Road Station, Marylebone",51.514449,-0.077178979,28,51.519968,-0.169774
127942339,607,2023-01-15 21:57:00.000000 UTC,"Ansell House, Stepney","Dock Street, Wapping",51.520019,-0.05438,41,51.5097860151,-0.0681619805156
127942337,305,2023-01-15 21:57:00.000000 UTC,"Dorset Square, Marylebone","St. John's Wood Road, St. John's Wood",51.5225965,-0.161113413,16,51.5272947,-0.174653609
127942338,2333,2023-01-15 21:57:00.000000 UTC,"Birkenhead Street, King's Cross","Cephas Street, Bethnal Green",51.5301998755,-0.122299440803,27,51.522561,-0.054883
127942341,224,2023-01-15 21:57:00.000000 UTC,"Godliman Street, St. Paul's","Milroy Walk, South Bank",51.51248445,-0.099141408,25,51.50724437,-0.106237501
127942335,223,2023-01-15 21:56:00.000000 UTC,"Fore Street Avenue, Guildhall","Bath Street, St. Luke's",51.517842,-0.090075,19,51.52589324,-0.090847761
127942332,748,2023-01-15 21:56:00.000000 UTC,"Regent's Row , Haggerston","Ford Road, Old Ford",51.535678,-0.062546,24,51.532513,-0.033085
127942333,818,2023-01-15 21:56:00.000000 UTC,"Tavistock Street, Covent Garden","Vauxhall Cross, Vauxhall",51.51196803,-0.120718759,33,51.48591714,-0.124469948
127942334,491,2023-01-15 21:56:00.000000 UTC,"Brandon Street, Walworth","Kennington Road  , Vauxhall",51.489102,-0.0915489,22,51.49571828,-0.110889274
127942331,294,2023-01-15 21:55:00.000000 UTC,"Royal College Street, Camden Town","Hawley Crescent, Camden Town",51.536264,-0.133952,57,51.54100708,-0.14326094
127942329,478,2023-01-15 21:54:00.000000 UTC,"Pott Street, Bethnal Green","Dunston Road , Haggerston",51.527152,-0.058005,20,51.53658514,-0.075885686
127942330,322,2023-01-15 21:54:00.000000 UTC,"York Hall, Bethnal Green","London Fields, Hackney Central",51.528936,-0.055894,27,51.54119,-0.058826101
127942328,379,2023-01-15 21:54:00.000000 UTC,"Bramham Gardens, Earl's Court","Limerston Street, West Chelsea",51.49016361,-0.19039362,29,51.485587,-0.18119
127942327,219,2023-01-15 21:54:00.000000 UTC,"Import Dock, Canary Wharf","Westferry DLR, Limehouse",51.505772,-0.016460175,39,51.509303,-0.025996
127942326,1960,2023-01-15 21:54:00.000000 UTC,"Kennington Cross, Kennington","Curzon Street, Mayfair",51.48894022,-0.111435796,47,51.50706909,-0.145904427
127942325,1360,2023-01-15 21:53:00.000000 UTC,"Prince Consort Road, Knightsbridge","Fire Brigade Pier, Vauxhall",51.49980661,-0.176415994,18,51.49369988,-0.121394101
127942322,372,2023-01-15 21:53:00.000000 UTC,"Queen's Gate (Central), South Kensington","Drayton Gardens, West Chelsea",51.49396755,-0.17873226,31,51.487196,-0.179369
127942323,3558,2023-01-15 21:53:00.000000 UTC,"Ashley Place, Victoria","Vauxhall Bridge , Pimlico",51.49616092,-0.140947636,25,51.48836528,-0.129361842
127942324,1064,2023-01-15 21:53:00.000000 UTC,"Saltoun Road, Brixton","Morie Street, Wandsworth",51.460232,-0.11537509,42,51.45995384,-0.190184054
127942321,606,2023-01-15 21:53:00.000000 UTC,"Pall Mall East, West End","Ontario Street, Elephant & Castle",51.50777049,-0.130699733,22,51.49652013,-0.101384068
127942316,117,2023-01-15 21:52:00.000000 UTC,"Binfield Road, Stockwell","Teversham Lane, Stockwell",51.47250956,-0.122831913,35,51.47614939,-0.1232585
127942319,302,2023-01-15 21:52:00.000000 UTC,"Queensbridge Road, Haggerston","Victoria Park Road, Hackney Central",51.53385,-0.06992,35,51.53642464,-0.054162264
127942318,1042,2023-01-15 21:52:00.000000 UTC,"Liverpool Road (N1 Centre), Angel","Albert Gardens, Stepney",51.53450449,-0.106992706,24,51.51328,-0.047784
127942315,790,2023-01-15 21:52:00.000000 UTC,"Borough Road, Elephant & Castle","Clements Road, Bermondsey",51.49889832,-0.100440521,41,51.4954,-0.061698585
127942317,1437,2023-01-15 21:52:00.000000 UTC,"Bourne Street, Belgravia","Ormonde Gate, Chelsea",51.490959,-0.1532331,16,51.48796408,-0.161765173
127942311,236,2023-01-15 21:51:00.000000 UTC,"Plough Terrace, Clapham Junction","Vicarage Crescent, Battersea",51.46230566,-0.175407201,31,51.47287627,-0.176267008
127942312,129,2023-01-15 21:51:00.000000 UTC,"Mostyn Grove, Bow","Hewison Street, Old Ford",51.530535,-0.025492,46,51.533283,-0.028155
127942313,1223,2023-01-15 21:51:00.000000 UTC,"Baldwin Street, St. Luke's","Twig Folly Bridge, Mile End",51.52702563,-0.088542771,21,51.530326,-0.042744
127942310,297,2023-01-15 21:51:00.000000 UTC,"Theobald's Road , Holborn","Cromer Street, Bloomsbury",51.52059681,-0.116688468,26,51.528279,-0.11955857
127942314,220,2023-01-15 21:51:00.000000 UTC,"East Ferry Road, Cubitt Town","Lightermans Road, Millwall",51.49447,-0.014409,17,51.499041,-0.020157
127942309,243,2023-01-15 21:51:00.000000 UTC,"South Parade, Chelsea","South Kensington Station, South Kensington",51.48902,-0.17524,18,51.494412,-0.173881
127942307,142,2023-01-15 21:50:00.000000 UTC,"Snowsfields, London Bridge","Empire Square, The Borough",51.50215353,-0.083632928,31,51.50082346,-0.089740764
127942305,755,2023-01-15 21:50:00.000000 UTC,"Campden Hill Road, Notting Hill","Harrowby Street, Marylebone",51.50658458,-0.199004026,17,51.5173721,-0.1642075
127942306,553,2023-01-15 21:50:00.000000 UTC,"Shadwell Station, Shadwell","Bricklayers Arms, Borough",51.511088,-0.057159,35,51.49506109,-0.085814489
127942308,193,2023-01-15 21:50:00.000000 UTC,"Putney Bridge Station, Fulham","Felsham Road, Putney",51.468814,-0.210279,21,51.464786,-0.215618902
127942301,1518,2023-01-15 21:49:00.000000 UTC,"East Ferry Road, Cubitt Town","Ackroyd Drive, Bow",51.49447,-0.014409,17,51.520398,-0.026768
127942303,386,2023-01-15 21:49:00.000000 UTC,"Charing Cross Hospital, Hammersmith","Coomer Place, West Kensington",51.48728535,-0.217995921,21,51.4835707,-0.20203870000000279
127942300,322,2023-01-15 21:49:00.000000 UTC,"Queen Mary's, Mile End","Southern Grove, Bow",51.522507,-0.041378,45,51.523538,-0.030556
127942302,955,2023-01-15 21:49:00.000000 UTC,"St. Chad's Street, King's Cross","Shoreditch High Street, Shoreditch",51.53005939,-0.120973687,23,51.5263778,-0.078130921
127942296,620,2023-01-15 21:48:00.000000 UTC,"Drayton Gardens, West Chelsea","Kensington Church Street, Kensington",51.487196,-0.179369,18,51.50315739,-0.191496313
127942294,639,2023-01-15 21:48:00.000000 UTC,"Drayton Gardens, West Chelsea","Kensington Church Street, Kensington",51.487196,-0.179369,18,51.50315739,-0.191496313
127942298,637,2023-01-15 21:48:00.000000 UTC,"Drayton Gardens, West Chelsea","Kensington Church Street, Kensington",51.487196,-0.179369,18,51.50315739,-0.191496313
127942299,130,2023-01-15 21:48:00.000000 UTC,"Notting Hill Gate Station, Notting Hill","Chepstow Villas, Notting Hill",51.50935342,-0.196422,30,51.51213691,-0.201554966
127942293,253,2023-01-15 21:48:00.000000 UTC,"George Street, Marylebone","Dorset Square, Marylebone",51.517703,-0.154106,27,51.5225965,-0.161113413
127942295,275,2023-01-15 21:48:00.000000 UTC,"Haggerston Road, Haggerston","Falkirk Street, Hoxton",51.53932857,-0.074284675,37,51.53095071,-0.078505384
127942297,620,2023-01-15 21:48:00.000000 UTC,"Drayton Gardens, West Chelsea","Kensington Church Street, Kensington",51.487196,-0.179369,18,51.50315739,-0.191496313
127942290,431,2023-01-15 21:47:00.000000 UTC,"Percival Street, Finsbury","Malet Street, Bloomsbury",51.526153,-0.102208,22,51.52168078,-0.130431727
127942291,1978,2023-01-15 21:47:00.000000 UTC,"Clarendon Road, Avondale","St. John Street, Finsbury",51.51323001,-0.211593602,24,51.52836014,-0.104724625
127942289,1149,2023-01-15 21:47:00.000000 UTC,"Birkenhead Street, King's Cross","Curlew Street, Shad Thames",51.5301998755,-0.122299440803,27,51.50227992,-0.074189225
127942284,568,2023-01-15 21:46:00.000000 UTC,"Wellington Row, Bethnal Green","Watney Market, Stepney",51.528222,-0.069743,33,51.5142228,-0.055656
127942285,440,2023-01-15 21:46:00.000000 UTC,"Pancras Road, King's Cross","Castlehaven Road, Camden Town",51.5341235,-0.129386874,16,51.542138,-0.145393
127942288,248,2023-01-15 21:46:00.000000 UTC,"Islington Green, Angel","Liverpool Road (N1 Centre), Angel",51.53638435,-0.102757578,21,51.53450449,-0.106992706
127942287,436,2023-01-15 21:46:00.000000 UTC,"Beryl Road, Hammersmith","Finlay Street, Fulham",51.48814438,-0.222456468,26,51.4768851,-0.215895601
127942286,613,2023-01-15 21:46:00.000000 UTC,"Frith Street, Soho","Park Lane, Mayfair",51.51310333,-0.13121385,18,51.50542628,-0.150817316
127942283,400,2023-01-15 21:46:00.000000 UTC,"Wapping Lane, Wapping","St. Katharine's Way, Tower",51.504749,-0.057544,28,51.505697,-0.070542
127942281,1310,2023-01-15 21:44:00.000000 UTC,"Royal Avenue 2, Chelsea","World's End Place, West Chelsea",51.490083,-0.162418,10,51.48180515,-0.18027465
127942280,1113,2023-01-15 21:44:00.000000 UTC,"Southampton Street, Strand","Bell Lane, Liverpool Street",51.51070161,-0.121723604,14,51.517475,-0.075855
127942279,268,2023-01-15 21:44:00.000000 UTC,"Ram Street, Wandsworth","Usk Road, Clapham Junction",51.45752945,-0.192165613,25,51.46348914,-0.182126248
127942278,3324,2023-01-15 21:44:00.000000 UTC,"Exhibition Road Museums 2, South Kensington","Mile End Park Leisure Centre, Mile End",51.495947,-0.17368958,14,51.52059714,-0.032566533
127942276,542,2023-01-15 21:43:00.000000 UTC,"Queensway, Kensington Gardens","Knaresborough Place, Earl's Court",51.51031,-0.18740235,17,51.49363156,-0.190603326
127942275,334,2023-01-15 21:43:00.000000 UTC,"Westbridge Road, Battersea","Alfreda Street, Battersea Park",51.47768469,-0.170329317,28,51.47505096,-0.150908371
127942273,2168,2023-01-15 21:43:00.000000 UTC,"Shoreditch Court, Haggerston","Gauden Road, Clapham",51.53908372,-0.070329419,35,51.464995,-0.13090885
127942274,1001,2023-01-15 21:43:00.000000 UTC,"Tower Wharf, Bermondsey","Bermondsey Station, Bermondsey",51.500845,-0.074704305,20,51.497995,-0.063471392
127942277,1152,2023-01-15 21:43:00.000000 UTC,"Howland Street, Fitzrovia","Hampton Street, Walworth",51.520994,-0.139016,30,51.49217002,-0.101536865
127942272,307,2023-01-15 21:42:00.000000 UTC,"Jewry Street, Aldgate","St. Katharine's Way, Tower",51.51340693,-0.076793375,17,51.505697,-0.070542
127942267,378,2023-01-15 21:41:00.000000 UTC,"Tooley Street, Bermondsey","Bell Lane, Liverpool Street",51.5034938,-0.07962099,27,51.517475,-0.075855
127942265,567,2023-01-15 21:41:00.000000 UTC,"Cadogan Place, Knightsbridge","Harcourt Terrace, West Brompton",51.49464523,-0.158105512,34,51.48795853,-0.187404506
127942268,424,2023-01-15 21:41:00.000000 UTC,"Cantrell Road, Bow","Flamborough Street, Limehouse",51.521564,-0.022694,24,51.5128711,-0.0389866
127942266,977,2023-01-15 21:41:00.000000 UTC,"Geraldine Street, Elephant & Castle","Albert Square, Stockwell",51.49612799,-0.106000855,17,51.4765900593,-0.118256789081
127942269,951,2023-01-15 21:41:00.000000 UTC,"Geraldine Street, Elephant & Castle","Albert Square, Stockwell",51.49612799,-0.106000855,17,51.4765900593,-0.118256789081
127942270,543,2023-01-15 21:41:00.000000 UTC,"Wapping Lane, Wapping","Tower Wharf, Bermondsey",51.504749,-0.057544,28,51.500845,-0.074704305
127942263,269,2023-01-15 21:40:00.000000 UTC,"Clapham Common Station, Clapham Common","Heath Road, Battersea",51.461388,-0.13922146,21,51.46866929,-0.146544642
127942264,278,2023-01-15 21:40:00.000000 UTC,"Austin Road, Battersea Park","Simpson Street, Clapham Junction",51.474376,-0.155442787,24,51.47084722,-0.17070367
127942262,566,2023-01-15 21:39:00.000000 UTC,"Brushfield Street, Liverpool Street","Ansell House, Stepney",51.518908,-0.079249,34,51.520019,-0.05438
127942261,297,2023-01-15 21:39:00.000000 UTC,"Dickens Square, Borough","Brandon Street, Walworth",51.49679128,-0.093913472,32,51.489102,-0.0915489
127942259,204,2023-01-15 21:38:00.000000 UTC,"Harper Road, The Borough","Long Lane , Bermondsey",51.49859784,-0.096191134,42,51.49907558,-0.085666316
127942258,108,2023-01-15 21:38:00.000000 UTC,"Fanshaw Street, Hoxton","East Road, Hoxton",51.52953709,-0.083353323,36,51.52867339,-0.087459376
127942260,258,2023-01-15 21:38:00.000000 UTC,"Bricklayers Arms, Borough","Curlew Street, Shad Thames",51.49506109,-0.085814489,28,51.50227992,-0.074189225
127942254,1297,2023-01-15 21:37:00.000000 UTC,"Islington Green, Angel","Great Dover Street, The Borough",51.53638435,-0.102757578,21,51.49738251,-0.089446947
127942256,701,2023-01-15 21:37:00.000000 UTC,"William IV Street, Strand","Rodney Road , Walworth",51.50946212,-0.124749274,26,51.49148474,-0.090220911
127942252,1188,2023-01-15 21:36:00.000000 UTC,"Vauxhall Cross, Vauxhall","Sadlers Sports Centre, Finsbury",51.48591714,-0.124469948,17,51.52486887,-0.099489485
127942250,793,2023-01-15 21:36:00.000000 UTC,"Old Montague Street, Whitechapel","Waterloo Station 1, Waterloo",51.51793,-0.067937,18,51.50402794,-0.11386436
127942251,816,2023-01-15 21:36:00.000000 UTC,"Bell Lane, Liverpool Street","Union Street, The Borough",51.517475,-0.075855,23,51.50368837,-0.098497684
127942241,2262,2023-01-15 21:35:00.000000 UTC,"Little Argyll Street, West End","Usk Road, Clapham Junction",51.51449962,-0.141423695,21,51.46348914,-0.182126248
127942247,2800,2023-01-15 21:35:00.000000 UTC,"Concert Hall Approach 1, South Bank","Leman Street, Aldgate",51.505044,-0.115851,10,51.51236389,-0.06954201
127942242,1398,2023-01-15 21:35:00.000000 UTC,"Moor Street, Soho","Buckingham Gate, Westminster",51.51352755,-0.130110822,16,51.49886563,-0.137424571
127942249,316,2023-01-15 21:35:00.000000 UTC,"Maplin Street, Mile End","Ford Road, Old Ford",51.525501,-0.032267204,39,51.532513,-0.033085
127942244,1387,2023-01-15 21:35:00.000000 UTC,"Moor Street, Soho","Buckingham Gate, Westminster",51.51352755,-0.130110822,16,51.49886563,-0.137424571
127942243,175,2023-01-15 21:35:00.000000 UTC,"Tate Modern, Bankside","Southwark Station 1, Southwark",51.5067252868,-0.0988072461627,30,51.504043,-0.105312
127942245,421,2023-01-15 21:35:00.000000 UTC,"Tallis Street, Temple","Tate Modern, Bankside",51.511891,-0.107349,24,51.5067252868,-0.0988072461627
127942248,190,2023-01-15 21:35:00.000000 UTC,"Gloucester Road Station, South Kensington","Imperial College, Knightsbridge",51.49418566,-0.18267094,15,51.49942855,-0.179702476
127942246,453,2023-01-15 21:35:00.000000 UTC,"Gascoyne Road, Victoria Park","Monier Road, Hackney Wick",51.541515,-0.038557746,20,51.5403115,-0.021630359
127942236,299,2023-01-15 21:34:00.000000 UTC,"Warren Street Station, Euston","Cartwright Gardens , Bloomsbury",51.52443845,-0.138019439,26,51.52635795,-0.125979294
127942240,349,2023-01-15 21:34:00.000000 UTC,"Harford Street, Mile End","Cantrell Road, Bow",51.521564,-0.039264,23,51.521564,-0.022694
127942238,723,2023-01-15 21:34:00.000000 UTC,"Howland Street, Fitzrovia","St. John Street, Finsbury",51.520994,-0.139016,30,51.52836014,-0.104724625
127942231,337,2023-01-15 21:33:00.000000 UTC,"Shepherd's Bush Road North, Shepherd's Bush","Southerton Road, Hammersmith",51.5015946,-0.222293381,34,51.494499,-0.228188
127942230,419,2023-01-15 21:33:00.000000 UTC,"Queen's Gate (Central), South Kensington","Hortensia Road, West Brompton",51.49396755,-0.17873226,31,51.48176572,-0.185273723
127942229,130,2023-01-15 21:33:00.000000 UTC,"Harper Road, The Borough","Great Dover Street, The Borough",51.49859784,-0.096191134,42,51.49738251,-0.089446947
127942232,340,2023-01-15 21:33:00.000000 UTC,"Shoreditch High Street, Shoreditch","Central House, Aldgate",51.5263778,-0.078130921,41,51.515231,-0.07015
127942234,401,2023-01-15 21:33:00.000000 UTC,"Windsor Terrace, Hoxton","Aldersgate Street, Barbican",51.52915444,-0.093421615,24,51.5208417,-0.097340162
127942226,529,2023-01-15 21:33:00.000000 UTC,"St. Mary Axe, Aldgate","Tooley Street, Bermondsey",51.51422502,-0.080660083,21,51.5034938,-0.07962099
127942227,561,2023-01-15 21:33:00.000000 UTC,"Notting Hill Gate Station, Notting Hill","Queen's Gate (South), South Kensington",51.50935342,-0.196422,30,51.49247977,-0.178433004
127942225,383,2023-01-15 21:32:00.000000 UTC,"Shoreditch High Street, Shoreditch","Central House, Aldgate",51.5263778,-0.078130921,41,51.515231,-0.07015
127942223,245,2023-01-15 21:32:00.000000 UTC,"Red Lion Street, Holborn","Brunswick Square, Bloomsbury",51.51824,-0.11655,36,51.52395143,-0.122502346
127942222,650,2023-01-15 21:32:00.000000 UTC,"High Holborn , Covent Garden","Baldwin Street, St. Luke's",51.516226,-0.124826,20,51.52702563,-0.088542771
127942224,706,2023-01-15 21:32:00.000000 UTC,"Berry Street, Clerkenwell","Hollybush Gardens, Bethnal Green",51.52285301,-0.099994052,41,51.527607,-0.057133
127942221,262,2023-01-15 21:32:00.000000 UTC,"Swan Street, The Borough","Tyers Gate, Bermondsey",51.50029631,-0.092762704,27,51.50088934,-0.083159352
127942219,1228,2023-01-15 21:31:00.000000 UTC,"Frith Street, Soho","Grove End Road, St. John's Wood",51.51310333,-0.13121385,18,51.53088935,-0.176770502
127942217,2180,2023-01-15 21:31:00.000000 UTC,"Brick Lane Market, Shoreditch","Frith Street, Soho",51.52261762,-0.071653961,24,51.51310333,-0.13121385
127942220,692,2023-01-15 21:31:00.000000 UTC,"High Holborn , Covent Garden","Baldwin Street, St. Luke's",51.516226,-0.124826,20,51.52702563,-0.088542771
127942218,2180,2023-01-15 21:31:00.000000 UTC,"Brick Lane Market, Shoreditch","Frith Street, Soho",51.52261762,-0.071653961,24,51.51310333,-0.13121385
127942214,339,2023-01-15 21:30:00.000000 UTC,"Kennington Station, Kennington","Caldwell Street, Stockwell",51.488852,-0.105593,23,51.477839,-0.116493
127942213,394,2023-01-15 21:30:00.000000 UTC,"Barons Court Station, West Kensington","Finlay Street, Fulham",51.49021762,-0.215087092,32,51.4768851,-0.215895601
127942215,62,2023-01-15 21:30:00.000000 UTC,"Wapping High Street, Wapping","St. Katharine's Way, Tower",51.504904,-0.06797,20,51.505697,-0.070542
127942212,802,2023-01-15 21:30:00.000000 UTC,"Vauxhall Street, Vauxhall","Austin Road, Battersea Park",51.486965,-0.116625,19,51.474376,-0.155442787
127942216,611,2023-01-15 21:30:00.000000 UTC,"Dock Street, Wapping","Finsbury Square , Moorgate",51.5097860151,-0.0681619805156,30,51.52096262,-0.085634242
127942209,1339,2023-01-15 21:29:00.000000 UTC,"Antill Road, Mile End","Bermondsey Street, Bermondsey",51.528224,-0.037471,30,51.49785559,-0.081608045
127942210,652,2023-01-15 21:29:00.000000 UTC,"Hansard Mews, Holland Park","Trebovir Road, Earl's Court",51.503802,-0.215808,20,51.49085368,-0.196170309
127942211,366,2023-01-15 21:29:00.000000 UTC,"Kennington Station, Kennington","Caldwell Street, Stockwell",51.488852,-0.105593,23,51.477839,-0.116493
127942207,631,2023-01-15 21:29:00.000000 UTC,"South Kensington Station, South Kensington","Danvers Street, West Chelsea",51.494412,-0.173881,15,51.48256792,-0.172078187
127942203,3034,2023-01-15 21:28:00.000000 UTC,"Broadley Terrace, Marylebone","Pall Mall East, West End",51.52456169,-0.165668686,18,51.50777049,-0.130699733
127942205,760,2023-01-15 21:28:00.000000 UTC,"Frith Street, Soho","Dickens Square, Borough",51.51310333,-0.13121385,18,51.49679128,-0.093913472
127942200,3051,2023-01-15 21:28:00.000000 UTC,"Broadley Terrace, Marylebone","Pall Mall East, West End",51.52456169,-0.165668686,18,51.50777049,-0.130699733
127942206,665,2023-01-15 21:28:00.000000 UTC,"Gloucester Avenue, Camden Town","Park Road (Baker Street), The Regent's Park",51.537349,-0.147154,24,51.52451738,-0.158963647
127942201,201,2023-01-15 21:28:00.000000 UTC,"Graham Street, Angel","Finsbury Leisure Centre, St. Luke's",51.53266186,-0.099981142,26,51.52600832,-0.096317627
127942204,561,2023-01-15 21:28:00.000000 UTC,"Hop Exchange, The Borough","Wormwood Street, Liverpool Street",51.50462759,-0.091773776,56,51.51615461,-0.082422399
127942194,187,2023-01-15 21:27:00.000000 UTC,"Hereford Road, Bayswater","Notting Hill Gate Station, Notting Hill",51.513735,-0.193487,22,51.50935342,-0.196422
127942198,254,2023-01-15 21:27:00.000000 UTC,"Barons Court Station, West Kensington","Greyhound Road, Hammersmith",51.49021762,-0.215087092,32,51.48606206,-0.214428378
127942192,766,2023-01-15 21:27:00.000000 UTC,"Grant Road East, Clapham Junction","Aintree Street, Fulham",51.46489445,-0.17302926,28,51.48102131,-0.209973497
127942197,866,2023-01-15 21:27:00.000000 UTC,"Brandon Street, Walworth","Tooley Street, Bermondsey",51.489102,-0.0915489,22,51.5034938,-0.07962099
127942193,1425,2023-01-15 21:27:00.000000 UTC,"Hawley Crescent, Camden Town","Calshot Street , King's Cross",51.54100708,-0.14326094,22,51.53136059,-0.117069978
127942189,653,2023-01-15 21:26:00.000000 UTC,"Clapham Common Station, Clapham Common","Alma Road, Wandsworth",51.461388,-0.13922146,21,51.45799126,-0.184806157
127942191,178,2023-01-15 21:26:00.000000 UTC,"Finsbury Leisure Centre, St. Luke's","Graham Street, Angel",51.52600832,-0.096317627,20,51.53266186,-0.099981142
127942188,379,2023-01-15 21:26:00.000000 UTC,"Russell Square Station, Bloomsbury","Warren Street Station, Euston",51.52341837,-0.124121774,26,51.52443845,-0.138019439
127942190,724,2023-01-15 21:26:00.000000 UTC,"Southwark Street, Bankside","Central House, Aldgate",51.5054099403,-0.0983410884509,23,51.515231,-0.07015
127942187,864,2023-01-15 21:26:00.000000 UTC,"Green Street, Mayfair","Old Brompton Road, South Kensington",51.51227622,-0.157436972,19,51.49094565,-0.181190899
127942185,618,2023-01-15 21:26:00.000000 UTC,"Kennington Station, Kennington","Alderney Street, Pimlico",51.488852,-0.105593,23,51.48805753,-0.140741432
127942186,805,2023-01-15 21:26:00.000000 UTC,"Dunston Road , Haggerston","Royal London Hospital, Whitechapel",51.53658514,-0.075885686,43,51.518675,-0.06111
127942183,877,2023-01-15 21:25:00.000000 UTC,"Earnshaw Street , Covent Garden","Golden Lane, Barbican",51.51611887,-0.128585022,18,51.52174785,-0.094475072
127942181,2234,2023-01-15 21:25:00.000000 UTC,"Penywern Road, Earl's Court","Westminster Pier, Westminster",51.49159394,-0.192369256,17,51.501513,-0.12382322
127942184,1321,2023-01-15 21:25:00.000000 UTC,"Wardour Street, Soho","Addison Road, Holland Park",51.51251523,-0.133201961,16,51.504199,-0.210941
127942182,134,2023-01-15 21:25:00.000000 UTC,"Royal London Hospital, Whitechapel","Old Montague Street, Whitechapel",51.518675,-0.06111,42,51.51793,-0.067937
127942179,1533,2023-01-15 21:25:00.000000 UTC,"Arundel Street, Temple","Ethelburga Estate, Battersea Park",51.511726,-0.11385596,18,51.47729232,-0.16478637
127942170,531,2023-01-15 21:24:00.000000 UTC,"Watney Market, Stepney","Bank of England Museum, Bank",51.5142228,-0.055656,51,51.51444134,-0.087587447
127942176,323,2023-01-15 21:24:00.000000 UTC,"Fulham Broadway, Walham Green","Imperial Wharf Station, Sands End",51.47993289,-0.19411695,26,51.474665,-0.18316517
127942175,220,2023-01-15 21:24:00.000000 UTC,"Ford Road, Old Ford","Antill Road, Mile End",51.532513,-0.033085,18,51.528224,-0.037471
127942172,362,2023-01-15 21:24:00.000000 UTC,"Hyde Park Corner, Hyde Park","Ashley Place, Victoria",51.50311799,-0.153520935,36,51.49616092,-0.140947636
127942171,865,2023-01-15 21:24:00.000000 UTC,"Islington Green, Angel","Nesham Street, Wapping",51.53638435,-0.102757578,21,51.507131,-0.06691
127942173,846,2023-01-15 21:24:00.000000 UTC,"Islington Green, Angel","Nesham Street, Wapping",51.53638435,-0.102757578,21,51.507131,-0.06691
127942174,1758,2023-01-15 21:24:00.000000 UTC,"Bankside Mix, Bankside","Regency Street, Westminster",51.50581776,-0.100186337,60,51.49206037,-0.132224622
127942177,837,2023-01-15 21:24:00.000000 UTC,"Westfield Ariel Way, White City","Beryl Road, Hammersmith",51.509158,-0.224103,42,51.48814438,-0.222456468
127942178,806,2023-01-15 21:24:00.000000 UTC,"Frith Street, Soho","Queensway, Kensington Gardens",51.51310333,-0.13121385,18,51.51031,-0.18740235
127942164,486,2023-01-15 21:23:00.000000 UTC,"Wapping High Street, Wapping","Houndsditch, Aldgate",51.504904,-0.06797,20,51.514449,-0.077178979
127942166,1871,2023-01-15 21:23:00.000000 UTC,"Lower Thames Street, Monument","Doddington Grove, Kennington",51.50930161,-0.084985356,24,51.48692917,-0.102996299
127942165,1525,2023-01-15 21:23:00.000000 UTC,"Argyll Road, Kensington","Derry Street, Kensington",51.50040123,-0.195455928,19,51.50136494,-0.191462381
127942169,811,2023-01-15 21:23:00.000000 UTC,"Page Street, Westminster","Teversham Lane, Stockwell",51.493978,-0.127554,24,51.47614939,-0.1232585
127942167,1864,2023-01-15 21:23:00.000000 UTC,"Lower Thames Street, Monument","Doddington Grove, Kennington",51.50930161,-0.084985356,24,51.48692917,-0.102996299
127942168,1861,2023-01-15 21:23:00.000000 UTC,"Lower Thames Street, Monument","Doddington Grove, Kennington",51.50930161,-0.084985356,24,51.48692917,-0.102996299
127942163,486,2023-01-15 21:23:00.000000 UTC,"Wapping High Street, Wapping","Houndsditch, Aldgate",51.504904,-0.06797,20,51.514449,-0.077178979
127942160,1038,2023-01-15 21:22:00.000000 UTC,"Gauden Road, Clapham","Smith Square, Westminster",51.464995,-0.13090885,28,51.49580589,-0.127575233
127942159,692,2023-01-15 21:22:00.000000 UTC,"South Bermondsey Station, Bermondsey","Canada Water Station, Rotherhithe",51.488067,-0.057774596,24,51.498439,-0.049150215
127942162,752,2023-01-15 21:22:00.000000 UTC,"Sackville Street, Mayfair","Page Street, Westminster",51.51004801,-0.138846453,18,51.493978,-0.127554
127942161,764,2023-01-15 21:22:00.000000 UTC,"Mudchute DLR, Cubitt Town","Langdon Park, Poplar",51.490645,-0.014582,31,51.51549,-0.013475
127942151,565,2023-01-15 21:21:00.000000 UTC,"Sedding Street, Sloane Square","Riverlight South, Nine Elms",51.49313,-0.156876,27,51.4813354746,-0.138212295869
127942153,1285,2023-01-15 21:21:00.000000 UTC,"Canada Water Station, Rotherhithe","Finsbury Leisure Centre, St. Luke's",51.498439,-0.049150215,35,51.52600832,-0.096317627
127942154,925,2023-01-15 21:21:00.000000 UTC,"Queen Street 2, Bank","Brushfield Street, Liverpool Street",51.511246,-0.093051,36,51.518908,-0.079249
127942152,1442,2023-01-15 21:21:00.000000 UTC,"Wynne Road, Stockwell","Old Street Station, St. Luke's",51.469217,-0.11268674,25,51.52548,-0.089659871
127942147,232,2023-01-15 21:21:00.000000 UTC,"Natural History Museum, South Kensington","Bramham Gardens, Earl's Court",51.49559291,-0.179077626,42,51.49016361,-0.19039362
